I_D,FLAG_TSUNAMI,YEAR,MONTH,DAY,HOUR,MINUTE,SECOND,FOCAL_DEPTH,EQ_PRIMARY,EQ_MAG_MW,EQ_MAG_MS,EQ_MAG_MB,EQ_MAG_ML,EQ_MAG_MFA,EQ_MAG_UNK,INTENSITY,COUNTRY,STATE,LOCATION_NAME,LATITUDE,LONGITUDE,REGION_CODE,DEATHS,DEATHS_DESCRIPTION,MISSING,MISSING_DESCRIPTION,INJURIES,INJURIES_DESCRIPTION,DAMAGE_MILLIONS_DOLLARS,DAMAGE_DESCRIPTION,HOUSES_DESTROYED,HOUSES_DESTROYED_DESCRIPTION,HOUSES_DAMAGED,HOUSES_DAMAGED_DESCRIPTION,TOTAL_DEATHS,TOTAL_DEATHS_DESCRIPTION,TOTAL_MISSING,TOTAL_MISSING_DESCRIPTION,TOTAL_INJURIES,TOTAL_INJURIES_DESCRIPTION,TOTAL_DAMAGE_MILLIONS_DOLLARS,TOTAL_DAMAGE_DESCRIPTION,TOTAL_HOUSES_DESTROYED,TOTAL_HOUSES_DESTROYED_DESCRIPTION,TOTAL_HOUSES_DAMAGED,TOTAL_HOUSES_DAMAGED_DESCRIPTION
5222,Yes,1990,2,8,7,15,32.2,26,6.6,,6.6,6.2,,,,7,PHILIPPINES,,"PHILIPPINES:  BOHOL, CEBU, CAGAYAN DE ORO, CAMIGUIN",9.755,124.694,170,,2,,,300,3,0.9,1,,,600,3,,2,,,300,3,0.9,1,,,600,3
6477,Yes,1990,2,20,6,53,39.8,14,6.4,,6.4,6.1,,,,,JAPAN,,JAPAN:  NEAR S. COAST OF HONSHU,34.706,139.252,30,,,,,,,,,,,,,,,,,,,,,,,,
5223,No,1990,2,28,23,43,36.6,5,5.5,,5.5,5.5,,,,7,USA,CA,"CALIFORNIA:  S,  CLAREMONT,  COVINA",34.14,-117.7,150,,,,,30,1,12.7,3,,,,,,,,,30,1,12.7,3,,,,
7709,No,1990,3,3,12,16,27.9,33,7.6,7.6,7.4,6.3,,,,,FIJI,,FIJI ISLANDS,-22.122,175.163,170,,,,,,,,,,,,,,,,,,,,,,,,
5224,No,1990,3,4,19,46,19.6,10,6.1,,6.1,5.8,,,,,PAKISTAN,,"PAKISTAN:  KALAT, QUETTA, MASTUNG",28.925,66.331,60,11,1,,,40,1,1,2,,,,3,11,1,,,40,1,1,2,,,,3
5225,Yes,1990,3,25,13,22,55.6,22,7,,7,6.2,,,,8,COSTA RICA,,"COSTA RICA:  PUNTARENAS, SAN JOSE",9.919,-84.808,100,,,,,15,1,,2,8,1,34,1,,,,,15,1,,2,8,1,34,1
5226,No,1990,3,25,14,17,18.8,33,6.3,,6.3,6,,,,6,TAJIKISTAN,,TAJIKISTAN:  PAMIR MOUNTAINS,37.034,72.942,40,,,,,,,,1,,,,,,,,,,,,1,,,,
5227,No,1990,3,26,22,47,16.7,39,5.5,,5.5,5.6,,,,4,PHILIPPINES,,PHILIPPINES:  SANTIAGO,9.253,125.606,170,1,1,,,2,1,,1,,,,,1,1,,,2,1,,1,,,,
5228,No,1990,4,2,13,46,31.7,18,4.7,,,4.7,,,,6,UK,,"UNITED KINGDOM:  MANCHESTER, LIVERPOOL",52.314,-2.985,120,,,,,,,,1,,,,2,,,,,,,,1,,,,2
5229,Yes,1990,4,5,21,12,35.5,11,7.5,,7.5,6.5,,,,4,USA TERRITORY,MP,NORTHERN MARIANA ISLANDS:  SAIPAN; GUAM,15.125,147.596,170,,,,,,,,,,,,,,,,,,,,,,,,
5230,No,1990,4,17,1,59,33.4,33,6.2,,6.2,6,,,,,CHINA,,CHINA:  S XINJIANG:  WUQIA COUNTY,39.436,74.9,40,,,,,2,1,,2,,3,,,,,,,2,1,,2,,3,,
5231,No,1990,4,18,13,39,19,26,7.6,7.6,7.4,6.2,,,,,INDONESIA,,INDONESIA:  MINAHASSA PENINSULA: BOLAANG-GORONTALO,1.186,122.857,170,3,1,,,25,1,,3,,,1140,4,3,1,,,25,1,,3,,,1140,4
5232,No,1990,4,18,19,38,8.9,47,4.7,,,4.7,,,,,IRAN,,IRAN:  HANNA,31.107,51.678,140,,,,,,,,1,,,,,,,,,,,,1,,,,
5233,No,1990,4,26,9,37,15,8,6.9,,6.9,6.5,,,,,CHINA,,CHINA:  QINGHAI PROVINCE:  GANGHE-XINGHAI,35.986,100.245,30,126,3,,,2049,4,58.35,4,66800,4,66800,4,126,3,,,2049,4,58.35,4,66800,4,,
5235,No,1990,5,5,7,21,29.5,10,5.4,,5.4,5.3,,,,7,ITALY,,ITALY:  POTENZA,40.775,15.766,130,2,1,,,16,1,,2,,,,,2,1,,,16,1,,2,,,,
5236,No,1990,5,13,4,23,9.6,21,6.3,,6.3,6,,,,8,NEW ZEALAND,,"NEW ZEALAND:  DANNEVIRKE,  WELLINGTON",-40.296,176.064,170,,,,,,,,2,,,,,,,,,,,,2,,,,
5237,No,1990,5,20,2,22,1.6,15,7.1,,7.1,6.7,,,,,SUDAN,,"SUDAN:  JUBA, MAYA;  UGANDA: NAKURA",5.121,32.145,15,31,1,,,,,,1,,,,,31,1,,,,,,1,,,,2
5239,No,1990,5,24,20,0,8.1,16,7,,7,6.5,,,,,SUDAN,,"SUDAN:  JUBA, KAPENGURIA",5.358,31.848,15,,,,,,,,1,,,,,,,,,,,,1,,,,2
5240,No,1990,5,30,2,34,5.8,24,6.5,,6.5,6.1,,,,6,PERU,,PERU:  MOYABAMBA-RIOJO,-6.016,-77.229,160,200,3,,,8130,4,1,2,,,,,200,3,,,8130,4,1,2,,,,
5241,No,1990,5,30,10,40,6.1,89,6.7,,,6.7,,,,6,ROMANIA,,"ROMANIA:  BUCHAREST, BRAILA, BRASOV",45.841,26.668,110,14,1,,,700,3,23.7,3,,,,,14,1,,,700,3,23.7,3,,,,
5242,No,1990,5,31,0,17,47.8,88,6.1,,,6.1,,,,5,ROMANIA,,"ROMANIA:  KISHINEV, CIS",45.811,26.769,110,,,,,,,,1,,,,,,,,,,,,1,,,,
5243,No,1990,6,8,0,31,50,10,4.6,,4.6,4.7,,,,,COSTA RICA,,COSTA RICA:  SANTIAGO DE PURISCAL,9.855,-84.327,100,,,,,,,,1,,,14,1,,,,,,,,1,,,14,1
5244,No,1990,6,9,1,14,34.5,26,4.9,,4.9,5.5,,,,6,PERU,,"PERU:  N, RIOJA, MOYOBAMBA, IQUITOS",-6.062,-77.136,160,1,1,,,,,,1,14,1,,,1,1,,,,,,1,14,1,,
5245,No,1990,6,14,7,40,56.2,18,7.1,,7.1,6,,,,6,PHILIPPINES,,"PHILIPPINES:  CULASI, PANAY",11.76,121.899,170,4,1,,,15,1,,2,,,,,4,1,,,15,1,,2,,,,
5246,No,1990,6,14,12,47,28.8,58,6.8,,6.8,6.1,,,,5,KAZAKHSTAN,,"KAZAKHSTAN:  UST, ZAYSAN",47.869,85.076,40,1,1,,,,,,3,3000,4,,,1,1,,,,,,3,3000,4,,
5247,No,1990,6,17,4,51,45.5,15,6.3,,6.3,5.9,,,,,PAKISTAN,,PAKISTAN:  BALUCHISTAN,27.398,65.719,60,,,,,6,1,,1,,,,,,,,,6,1,,1,,,,
5248,Yes,1990,6,20,21,0,9.9,19,7.3,7.3,7.7,6.4,,,,7,IRAN,,"IRAN:  RASHT, QAZVIN, ZANJAN,  RUDBAR, MANJIL",36.957,49.409,140,40000,4,,,105000,4,7200,4,,4,,,40000,4,,,105000,4,7200,4,,4,,
5250,No,1990,6,21,9,2,14.6,15,5.3,,5.3,5.8,,,,,IRAN,,"IRAN:  LOWSHAN, MANJIL",36.636,49.799,140,20,1,,,,,,1,,,,,20,1,,,,,,1,,,,
5251,No,1990,7,6,0,16,20.4,14,4.8,,4.8,5.8,,,,,INDONESIA,,"INDONESIA:  JAVA:  W, KUNINGAN, MAJALENGA",-6.904,108.12,60,,,,,103,3,,3,10300,4,,,,,,,103,3,,3,10300,4,,
5252,No,1990,7,13,14,20,43.4,217,5.6,,,5.6,,,,4,AFGHANISTAN,,AFGHANISTAN:  HINDU KUSH:  PIK LENINA,36.415,70.789,40,43,1,,,,,,,,,,,43,1,,,,,,,,,,
5253,No,1990,7,16,7,26,34.6,25,7.8,,7.8,6.5,,,,9,PHILIPPINES,,"PHILIPPINES:  BAGUIO,  CABANATUAN, DAGUPAN",15.679,121.172,170,2412,4,,,3000,4,369.6,4,,,,,2412,4,,,3000,4,369.6,4,,,,
5255,No,1990,7,18,11,29,24.9,17,5.1,,5.1,5.2,,,,,TURKEY,,"TURKEY:  CAMELI, DENIZLI",36.99,29.595,140,,,,,,,,2,,,393,3,,,,,,,,2,,,393,3
5256,No,1990,7,27,12,37,59.5,126,6.4,,,6.4,,,,5,VANUATU,,VANUATU ISLANDS:  ESPIRITU SANTO,-15.355,167.464,170,,,,,2,1,,2,,,,3,,,,,2,1,,2,,,,3
5257,No,1990,8,3,9,15,6.1,33,6.1,,6.1,6,,,,7,KAZAKHSTAN,,"KAZAKHSTAN:  AKKAL, UST",47.963,84.961,40,,,,,8,1,,2,500,3,,,,,,,8,1,,2,500,3,,
5258,No,1990,8,11,2,59,54.9,5,4.4,,4.4,5,,,,,ECUADOR,,"ECUADOR:  PAMASQUI,  QUITO",-0.059,-78.449,160,4,1,,,10,1,,3,,,1300,4,4,1,,,10,1,,3,,,1300,4
6602,Yes,1990,9,23,21,13,7.4,10,6.5,,6.5,6,,,,,JAPAN,,"JAPAN:  W. OF BONIN ISLANDS, IZU IS.",33.267,138.643,30,,,,,,,,,,,,,,,,,,,,,,,,
5259,No,1990,9,26,23,8,23.9,5,4.2,,4.2,5.4,,,,,SOUTH AFRICA,,SOUTH AFRICA:  WELKOM,-28.014,26.727,10,2,1,,,5,1,,1,,,,,2,1,,,5,1,,1,,,,
5260,No,1990,9,27,21,12,32.5,33,4.5,,4.5,5,,,,6,KAZAKHSTAN,,KAZAKHSTAN:  ZAYSAN,47.903,84.961,40,,,,,,,,1,,,,,,,,,,,,1,,,,
5261,No,1990,10,18,9,30,44.4,5,4,,,4,,,,,SOUTH AFRICA,,SOUTH AFRICA:  CHARLETONVILLE,-26.39,27.349,10,10,1,,,6,1,,,,,,,10,1,,,6,1,,,,,,
5262,No,1990,10,20,8,7,27.5,12,5.8,,5.8,5.6,,,,4,CHINA,,CHINA:  GANSU PROVINCE:  TIANZHU,37.093,103.781,30,7,1,,,92,2,,3,87000,4,,,4,1,,,92,2,,3,87000,4,,
5263,No,1990,10,25,4,53,59.9,114,6,,,6,,,,4,AFGHANISTAN,,"AFGHANISTAN:  HINDU KUSH:  CHITRAL, MARDAN, MALAKAND",35.121,70.486,40,11,1,,,250,3,,1,,,,,11,1,,,250,3,,1,,,,
5264,No,1990,11,6,18,45,52.2,11,6.7,,6.7,6.2,,,,,IRAN,,"IRAN:  S, DARAB",28.251,55.462,140,22,1,,,100,2,232.3,4,,,,,22,1,,,100,2,232.3,4,,,,
5265,No,1990,11,15,2,34,32.4,48,6.8,,6.8,6,,,,,INDONESIA,,"INDONESIA:   N SUMATERA, BLANGKEJEREN, KUTACANE",3.908,97.457,60,1,1,,,32,1,2.1,2,,,,,1,1,,,32,1,2.1,2,,,,
5266,No,1990,11,27,4,37,58.5,24,5.6,,5.6,5.1,,,,8,BOSNIA-HERZEGOVINA,,BALKANS NW:  BOSNIA-HERZEGOVINA:  TITOGRAD,43.853,16.633,130,,,,,10,1,,2,,,,,,,,,10,1,,2,,,,
5267,No,1990,12,1,18,9,28.8,29,4.6,,4.6,5,,,,6,KYRGYZSTAN,,KYRGYZSTAN:  UZGEN,40.854,73.553,40,,,,,,,,3,,,1110,4,,,,,,,,3,,,1110,4
5268,Yes,1990,12,13,0,24,25.7,11,5.3,,5.3,5.5,,,,7,ITALY,,ITALY:  SICILY:  CARLENTINI,37.3,15.438,130,19,1,,,200,3,500,4,,,,,19,1,,,200,3,500,4,,,,
5269,No,1990,12,13,3,1,48,12,6.2,,6.2,5.9,,,,4,TAIWAN,,"TAIWAN:  HUALIEN,  TAIPEI",23.916,121.636,30,2,1,,,3,1,,1,,,,,2,1,,,3,1,,1,,,,
7802,Yes,1990,12,13,19,50,17.8,10,6.3,,6.3,5.9,,,,5,TAIWAN,,TAIWAN:  HUA-LIEN,23.722,121.627,30,,,,,,,,1,,,,,,,,,,,,1,,,,
5270,No,1990,12,21,6,57,42.9,13,5.9,,5.9,5.8,,,,7,GREECE,,"GREECE:  EDHESSA, KILKIS",41.004,22.3,130,1,1,,,60,2,,1,,,,2,1,1,,,60,2,,1,,,,2
5271,No,1990,12,22,17,27,54.8,17,5.7,,5.7,5.3,,,,8,COSTA RICA,,"COSTA RICA:  ALAJUELA, SANTIAGO DE PURISCAL",9.869,-84.302,100,2,1,,,350,3,19.5,3,,,,,2,1,,,350,3,19.5,3,,,,
8958,No,1990,12,30,19,14,18.9,179,7.5,7.5,,6.6,,,,,PAPUA NEW GUINEA,,PAPUA NEW GUINEA:  NEW BRITAIN,-5.097,150.967,170,,,,,,,,1,,,,,,,,,,,,1,,,,
5272,No,1991,1,5,14,57,11.5,20,7.1,,7.1,6.2,,,,,MYANMAR (BURMA),,"MYANMAR (BURMA):  THABEIKKYIN, MANDALAY",23.613,95.901,60,,,,,,,,1,,,32,1,,,,,,,,1,,,32,1
5274,No,1991,1,31,23,3,33.6,142,6.4,,,6.4,,,,7,AFGHANISTAN,,"AFGHANISTAN:  BADAKHSTAN, BAGHLAN, LAGHMAN, NAGARHAR",35.993,70.423,40,848,3,,,200,3,36,4,,3,2000,4,848,3,,,200,3,36,4,,3,2000,4
6478,Yes,1991,2,9,16,18,58.3,10,6.9,6.9,6.9,6.4,,,,,SOLOMON ISLANDS,,SOLOMON ISLANDS,-9.929,159.139,170,,,,,,,,1,,,,,,,,,,,,1,,,,
5275,No,1991,2,13,15,49,38.9,5,3.8,,,,3.8,,,,FRANCE,,FRANCE,44.885,6.76,120,9,1,,,,,,1,,,,,9,1,,,,,,1,,,,
6479,Yes,1991,2,16,1,23,40.4,39,5.7,,5.7,6.3,,,,,RUSSIA,,RUSSIA:  KURIL ISLANDS,48.268,154.328,50,,,,,,,,,,,,,,,,,,,,,,,,
6480,Yes,1991,2,21,2,35,34,20,6.7,6.7,6.5,6.2,,,,,BERING SEA,AK,BERING SEA,58.427,-175.45,80,,,,,,,,,,,,,,,,,,,,,,,,
5276,No,1991,2,25,14,30,27.6,21,6.1,,6.1,5.5,,,,,CHINA,,CHINA:  S XINJIANG:  KALPIN,40.386,78.959,40,,,,,3,1,,2,8561,4,,,,,,,3,1,,2,8561,4,,
5277,No,1991,3,25,18,2,41.5,10,5.5,,5.5,5.1,,,,,CHINA,,"CHINA:  NE, DATONG",39.887,113.923,30,,,,,131,3,,2,1328,4,,,,,,,131,3,,2,1328,4,,
5278,No,1991,4,4,15,23,20.7,21,6.4,,6.4,6,,,,5,PERU,,"PERU:  RIOJA, NEUVA CAJAMARCA",-6.038,-77.13,160,,,,,10,1,,1,,,15,1,,,,,10,1,,1,,,15,1
5279,No,1991,4,5,4,19,49.5,20,6.7,,6.7,6.5,,,,7,PERU,,"PERU:  RIOJA, MOYOBAMBA, NUEVA CAJAMARCA",-5.982,-77.094,160,53,2,,,252,3,,3,,,8063,4,53,2,,,252,3,,3,,,8063,4
5280,No,1991,4,18,9,18,30.4,33,5.1,,5.1,5.4,,,,7,AFGHANISTAN,,AFGHANISTAN:  BADAKHSTAN PROVINCE,37.457,68.273,40,,2,,,,3,,3,,,1000,3,,2,,,,3,,3,,,1000,3
5281,No,1991,4,20,17,8,20.2,33,4.1,,,4.1,,,,,AFGHANISTAN,,"AFGHANISTAN:  HINDU KUSH:  BADAKHSTAN, KABUL",36.416,70.912,40,,,,,,,,1,,,100,2,,,,,,,,1,,,100,2
5282,Yes,1991,4,22,21,56,51.8,10,7.6,7.6,7.4,6.3,,,7.6,10,COSTA RICA,,"COSTA RICA:  LIMON, PANDORA;  PANAMA",9.685,-83.073,90,87,2,,,895,3,510,4,,3,,,90,2,,,895,3,510,4,,3,,
5285,No,1991,4,24,10,54,35.7,33,4.5,,,4.5,,,,,TURKEY,,TURKEY:  ERZURUM PROVINCE,39.597,41.118,140,1,1,,,3,1,,1,,,,2,1,1,,,3,1,,1,,,,2
5286,No,1991,4,29,9,12,48.1,17,7,,7,6.2,,,,9,GEORGIA,,"GEORGIA:  DZHAVA, CHIATURA, AMBROLAURI",42.453,43.673,40,270,3,,,,,1700,4,,4,,,270,3,,,,,1700,4,,4,,
5288,No,1991,5,4,3,42,54.5,10,6.2,,6.2,5.6,,,,,PANAMA,,"PANAMA:  CHANGUINOLA, ALMIRANTE, BOCAS DEL TORO",9.542,-82.418,100,,,,,36,1,,2,,,,,,,,,36,1,,2,,,,
5289,No,1991,5,15,14,28,50.1,14,4.9,,,4.9,,,,5,GEORGIA,,GEORGIA:  KHEKHETI,42.565,43.349,40,,1,,,,,,1,45,1,,,,1,,,,,,1,45,1,,
5290,No,1991,5,26,10,59,48.9,33,4.5,,4.5,5.1,,,,,MALAYSIA,,MALAYSIA:  KALIMANTAN:  RANAU,5.865,116.746,170,1,1,,,,,,1,,,,,1,1,,,,,,1,,,,
5291,No,1991,6,15,0,59,20.3,9,6.1,,6.1,6.1,,,,8,GEORGIA,,"GEORGIA:  DZHAVA, TSKHINVALI, OSSETIA",42.461,44.009,40,8,1,,,200,3,,3,,,,,8,1,,,200,3,,,,,,
5292,No,1991,6,15,11,15,28,10,5.5,,5.5,5.7,,,,,PHILIPPINES,,"PHILIPPINES:  LUZON:  MANILA, PINATUBO ERUPTION",15.119,120.355,170,,,,,,,,,,,,,800,3,,,4,1,,3,,,,
5293,No,1991,6,16,11,7,10.6,26,4.5,,4.5,4.6,,,,,TURKEY,,TURKEY:  KAGIZMAN,39.984,42.875,140,,,,,,,,2,,,,,,,,,,,,,,,,
5294,No,1991,6,20,5,18,52.5,31,7.5,7.5,7,6.2,,,,6,INDONESIA,,"INDONESIA:  MINAHASSA:  GORONTALO, MAMADO",1.196,122.787,170,,,,,,,,3,,,1500,4,,,,,,,,3,,,1500,4
5295,No,1991,6,28,14,43,54.5,11,5.1,,5.1,5.8,,,,7,USA,CA,"CALIFORNIA:  ARCADIA, GLENDALE, LOS ANGELES",34.262,-118.002,150,2,1,,,104,3,33.5,4,,,,,2,1,,,104,3,33.5,4,,,,
5296,No,1991,7,4,11,43,10.4,29,6.5,,6.5,6.2,,,,,INDONESIA,,"INDONESIA:  TIMOR:  KALABAHI, DILI",-8.099,124.681,60,28,1,,,181,3,7.7,3,1150,4,,,28,1,,,181,3,7.7,3,1150,4,,
5298,No,1991,7,12,10,42,21.2,11,5.6,5.6,5.7,5.3,,,,8,ROMANIA,,"ROMANIA:  BANLOC, DETA, TIMISOARA",45.364,21.057,110,2,1,,,30,2,,1,,,,2,2,1,,,30,1,,1,,,,2
5299,No,1991,7,18,11,56,30.6,12,5.6,5.6,5.5,5.7,,,,8,ROMANIA,,ROMANIA:  ORSAVA,44.888,22.407,110,,,,,,,,2,,,615,3,,,,,,,,2,,,615,3
5300,No,1991,7,23,19,44,50.2,5,4.7,,4.7,5,,,,5,PERU,,"PERU:  MACA, CHIVAY, YANQUE",-15.679,-71.574,160,92,2,,,30,1,,2,,3,,,92,2,,,30,1,,2,,3,,
5301,No,1991,7,24,9,45,41.8,26,5.1,,5.1,5.4,,,,8,IRAQ,,"IRAQ:  ARBIL,  DIBS",36.52,44.066,140,20,1,,,,3,,2,100,2,100,2,20,1,,,,3,,2,100,2,,
5302,No,1991,8,9,9,33,49.6,5,4.7,,4.7,4.7,,,,,COSTA RICA,,COSTA RICA:  CARTAGO,9.737,-84.054,100,,,,,,,,1,,,30,1,,,,,,,,1,,,30,1
5303,No,1991,8,17,6,18,34,10,5.2,,5.2,5.5,,,,5,VENEZUELA,,VENEZUELA:  BARQUISIMETO,10.045,-69.948,160,,,,,,,,2,,,100,2,,,,,,,,2,,,100,2
5304,No,1991,8,17,19,29,40,12,6.2,,6.2,6,,,,7,USA,CA,"CALIFORNIA:  HONEYDEW, WHITETHORN, PETROLIA",40.235,-124.348,150,,,,,,,,2,,,,,,,,,,,,2,,,,
5305,No,1991,9,8,13,50,30.8,88,5.6,,,5.6,,,,,NEW ZEALAND,,"NEW ZEALAND:  WELLINGTON, WANGANUI",-40.25,175.053,170,,,,,,,,2,,,,3,,,,,,,,2,,,,3
5306,No,1991,9,18,9,48,13.1,5,6.2,,6.2,5.7,,,,6,GUATEMALA,,"GUATEMALA:  GUATEMALA CITY, PACHUTA, SOLOLA",14.646,-90.986,100,25,1,,,200,3,,3,,,,,25,1,,,200,3,,3,,,,
6481,Yes,1991,10,14,15,58,12.7,23,7.2,7.2,7.1,6.3,,,,,SOLOMON ISLANDS,,SOLOMON ISLANDS,-9.094,158.442,170,,,,,,,,,,,,,,,,,,,,,,,,
5307,No,1991,10,19,21,23,14.3,10,7,,7,6.5,,,,8,INDIA,,"INDIA:  CHAMOLI, UTTARKASHI, NEW DELHI, CHANDIGARH",30.78,78.774,60,2000,4,,,1800,4,60,4,7500,4,7500,4,2000,4,,,1800,4,60,4,7500,4,,
5309,No,1991,11,4,1,50,31.6,39,5.4,,5.4,5.4,,,,,IRAN,,IRAN:  BEHBAHAN,30.666,50.218,140,,,,,51,2,,2,290,3,,,,,,,51,2,,2,290,3,,
5310,No,1991,11,8,15,13,44.1,22,5,,5,5.6,,,,,INDIA,,"INDIA:  JODHPUR, JAISALMER",26.323,70.607,60,,,,,,,,1,,,,,,,,,,,,1,,,,
5311,No,1991,11,19,22,28,51,21,6.4,,6.4,6.4,,,,6,COLOMBIA,,"COLOMBIA:  CHACO, BUENAVENTURA, CALI",4.554,-77.442,160,2,1,,,,,,1,,,28,1,2,1,,,,,,2,,,28,1
5312,No,1991,11,22,0,40,23.9,10,4.7,,,4.7,,,,,YEMEN,,YEMEN:  WESTERN  ARABIAN PENINSULA,13.887,44.068,60,11,1,,,40,1,,2,17,1,87,2,11,1,,,40,1,,2,17,1,87,2
5313,No,1991,11,28,17,19,55.5,16,5,,5,5.6,,,,,IRAN,,"IRAN:  RUDBAR, RASHT",36.924,49.603,140,1,1,,,70,2,,2,,,,,1,1,,,70,2,,2,,,,
5314,No,1991,12,2,8,49,40.2,9,5.5,5.5,5.6,5.2,,,,8,ROMANIA,,"ROMANIA:  VOITEG, DETA, BANLOC",45.498,21.115,110,,,,,,2,,2,,,5000,2,,,,,,2,,2,,,5000,4
6482,Yes,1991,12,22,8,43,13.4,24,7.6,7.6,7.4,6.3,,,,,RUSSIA,,"RUSSIA:  KAMCHATKA, KURIL ISLANDS",45.533,151.021,50,,,,,,,,,,,,,,,,,,,,,,,,
6483,Yes,1992,1,5,6,,,8,3.7,,3.7,,,,,,CHINA,,CHINA:  S. CHINA SEA,18,108,30,,,,,,,,,,,,,,,,,,,,1,,,,
8252,No,1992,2,1,19,4,4.5,100,5.6,,,5.6,,,,,JAPAN,,JAPAN:  HONSHU:  TOKYO,35.106,139.644,30,,,,,37,1,,1,,,,,,,,,37,1,,1,,,,
5315,No,1992,2,4,1,58,39.7,58,4.4,,4.4,5,,,,,INDONESIA,,"INDONESIA:  JAWA, BREBES",-7.138,109.067,60,,,,,1,1,,3,800,3,700,3,,,,,1,1,,3,800,3,700,3
5316,No,1992,3,4,11,57,53,18,4.6,,4.6,4.9,,,,,IRAN,,IRAN:  LORDEGAN ARDAL AREA,31.726,50.778,140,6,1,,,50,1,,2,300,3,,,6,1,,,50,1,,2,300,3,,
5317,No,1992,3,13,17,18,39.9,27,6.9,,6.9,6.2,,,,8,TURKEY,,TURKEY:  ERZINCAN,39.71,39.605,140,653,3,,,2000,4,750,4,,,8057,4,653,3,,,2000,4,750,4,,,8057,4
5319,No,1992,4,13,1,20,0.8,21,5.2,,5.2,5.5,5.9,,,8,NETHERLANDS,,"THE NETHERLANDS: ROERMOND; GERMANY: BONN, HEINSBERG",51.153,5.798,120,1,1,,,45,1,100,4,,,,,1,1,,,45,1,100,4,,,,
5320,No,1992,4,23,4,50,23.2,12,6.3,,6.3,5.7,6.1,,,7,USA,CA,"CALIFORNIA:  JOSHUA TREE, ANGELUS OAKS",33.961,-116.318,150,,,,,32,1,,2,,,,,,,,,32,1,,2,,,,
5321,Yes,1992,4,25,18,6,4.2,15,7.1,,7.1,6.3,,,,8,USA,CA,"CALIFORNIA: HUMBOLDT COUNTY: FERNDALE, PETROLIA",40.368,-124.316,150,,,,,98,2,75,4,,,,,,,,,98,2,75,4,,,,
5323,No,1992,5,15,8,8,2.9,50,6.2,,6.2,5.7,,,,7,KYRGYZSTAN,,KYRGYZSTAN:  OSH; UZBEKISTAN:  ANDIZHAN,41.019,72.429,40,4,1,,,,,31,4,5500,4,4000,4,4,1,,,,,31,4,5500,4,4000,4
5324,Yes,1992,5,17,10,15,31.3,33,7.5,,7.5,6.4,,,,,PHILIPPINES,,"PHILIPPINES:  MINDANAO, TANDAG, BISLIG",7.191,126.762,170,,,,,,,,1,,,,,,,,,,,,1,12,1,,
5325,No,1992,5,20,12,20,32.8,16,6,,6,6,,,,,PAKISTAN,,"PAKISTAN:  PESHAWAR, KOHAT, SHAKKAR KHEL",33.377,71.317,60,36,1,,,100,2,,2,400,3,,,6,1,,,100,2,,2,400,3,,
5327,No,1992,5,25,16,55,4.1,23,7,,7,6.3,,,,,CUBA,,"CUBA:  PILON, MANZANILLO",19.613,-77.872,90,,,,,40,1,,2,,,820,3,,,,,40,1,,2,,,820,3
6331,Yes,1992,5,27,5,13,38.8,19,7,,7,6.3,,,,,SOLOMON ISLANDS,,SOLOMON ISLANDS:  SANTA CRUZ ISLANDS,-11.122,165.239,170,,,,,,,,,,,,,,,,,,,,,,,,
5328,No,1992,6,28,11,57,34.1,1,7.6,,7.6,6.2,,,,9,USA,CA,"CALIFORNIA: LANDERS, YUCCA  VALLEY",34.201,-116.436,150,3,1,,,400,3,92,4,,,,,3,1,,,400,3,92,4,,,,
5330,No,1992,6,28,15,5,30.7,5,6.7,,6.7,6.3,,,,8,USA,CA,"CALIFORNIA: BIG BEAR LAKE, BIG BEAR CITY",34.203,-116.827,150,,,,,,2,,2,,,,,,,,,,2,,2,,,,
5331,No,1992,6,29,10,14,22.2,9,5.4,,5.4,5.6,,,,,USA,NV,NEVADA-CALIFORNIA BORDER:  NEVADA TEST SITE,36.705,-116.293,150,,,,,,,,2,,,,,,,,,,,,2,,,,
6484,Yes,1992,7,18,8,36,58.7,29,7,,7,6.2,,,,,JAPAN,,JAPAN:  HONSHU ISLAND,39.419,143.33,30,,,,,,,,,,,,,,,,,,,,,,,,
9818,Yes,1992,8,11,15,14,55.1,16,6.3,,6.3,5.8,,,,,JAPAN,,JAPAN:  HONSHU:  S,32.536,141.641,30,,,,,,,,,,,,,,,,,,,,,,,,
5332,No,1992,8,19,2,4,37.4,27,7.5,,7.5,6.6,,,,9,KYRGYZSTAN,,KYRGYZSTAN:  TOLUK,42.142,73.575,40,75,2,,,,,130,4,8200,4,,,75,2,,,,,130,4,8200,4,,
5334,No,1992,8,28,0,50,50.4,9,5.5,,5.5,5.5,,,,,PAKISTAN,,PAKISTAN:  KALAT,29.087,66.74,60,4,1,,,200,3,,2,,3,,,4,1,,,200,3,,2,,3,,
5335,Yes,1992,9,2,0,16,2.8,40,7.7,,7.7,5.4,,,,,NICARAGUA,,NICARAGUA:  MASACHAPA; COSTA RICA,11.727,-87.386,100,,1,,,,,,,,,,,170,3,,,489,3,30,4,1500,4,,
5337,No,1992,9,8,0,38,15.4,18,4.7,,4.7,5.2,,,,,IRAN,,IRAN:  FIRUZABAD,29.134,52.187,140,1,1,,,11,1,,2,200,3,,,1,1,,,11,1,,2,200,3,,
5338,No,1992,9,11,3,57,26.5,11,7,,7,6.7,,,,,CONGO,,CONGO:  KABALO,-6.087,26.651,10,8,1,,,37,1,,1,,2,,,8,1,,,37,1,,1,,2,,
5339,No,1992,10,12,13,9,55.5,22,5.3,,5.3,5.9,,,,,EGYPT,,EGYPT:  CAIRO,29.778,31.144,15,545,3,,,6512,4,1200,4,9350,4,9350,4,545,3,,,6512,4,1200,4,9350,4,,
5341,No,1992,10,17,8,32,40.5,14,7,,7,6.2,,,,,COLOMBIA,,"COLOMBIA:  MURINDO, CALI",6.845,-76.806,160,,,,,20,1,,2,,3,,,,,,,20,1,,2,,3,,
5342,No,1992,10,18,15,11,59.1,10,7.4,,7.4,6.6,,,,,COLOMBIA,,"COLOMBIA:  MURINDO, APARTADO, MEDELLIN",7.075,-76.862,160,11,1,,,115,2,,2,,2,,,11,1,,,115,2,,2,,,,
5343,Yes,1992,12,12,5,29,26.3,28,7.8,7.8,7.5,6.5,,,,,INDONESIA,,"INDONESIA:  FLORES REGION, MAUMERE, BABI",-8.48,121.896,60,1000,4,,,500,3,100,4,31785,4,,,2500,4,,,2103,4,100,4,31785,4,,
5344,No,1993,1,15,11,6,5.9,102,7.6,7.6,7.1,6.9,,,,6,JAPAN,,"JAPAN:  HOKKADIO, KUSHIRO, HACHINOHE, HONSHU",43.3,143.691,30,2,1,,,,,358,4,,,,,2,1,,,,,358,4,,,,
5346,No,1993,1,26,20,32,6.9,33,5.6,5.6,5.6,5.4,,,,,CHINA,,CHINA:  YUNNAN PROVINCE,23.027,101.062,30,,,,,66,2,,3,28417,4,28417,4,,,,,66,2,,3,28417,4,,
5347,No,1993,1,27,10,27,5.6,33,5.1,,,5.1,,,,,IRAN,,IRAN:  NEHBANDAN,32.104,60.088,140,,,,,,,,1,,,,,,,,,,,,,,,,
5348,Yes,1993,2,7,13,27,42,11,6.3,6.3,6.2,6.3,,,,,JAPAN,,"JAPAN:  HONSHU:  ISHIKAWA, TOYAMA, NIIGATA",37.634,137.245,30,,,,,,,,1,,,,,,,,,,,,,,,,
5349,No,1993,3,12,14,1,35.4,10,6.4,6.4,6.4,6,,,,,WALLIS AND FUTUNA (FRENCH TERRITORY),,FUTUNA ISLAND,-14.385,-178.252,170,5,1,,,201,,,1,,,,,5,1,,,20,1,,1,,2,,2
5350,No,1993,3,20,14,51,59.7,12,6.2,6.2,6,5.8,,,,,CHINA,,CHINA:  TIBET (XIZANG PROVINCE): NGAMRING,29.084,87.333,40,2,1,,,3,1,,1,,,,,2,1,,,3,1,,1,,,,
5351,No,1993,3,25,13,34,35.4,21,5.6,5.6,5.4,5.5,,,,7,USA,WA,WASHINGTON-OREGON BORDER,45.035,-122.607,150,,,,,,,28.4,4,,,,,,,,,,,,,,,,
5352,No,1993,3,26,22,52,46.9,30,5.1,5.1,4.8,5.1,,,,,IRAN,,IRAN:  BOVIR AHMADI VA KOHKILUYEH,30.692,50.886,140,,,,,,,,2,,,,,,,,,,,,,,,,
5353,No,1993,4,18,9,16,23.2,106,6.3,6.3,,6,,,,,PERU,,PERU:  LIMA,-11.652,-76.53,160,6,1,,,,,,1,,,,,,,,,,,,,,,,
5354,Yes,1993,6,8,13,3,36.4,71,7.5,7.5,7.3,6.4,,,,,RUSSIA,,RUSSIA:  KAMCHATKA,51.218,157.829,50,,,,,,,,1,,,,,,,,,,,,,,,,
10046,Yes,1993,6,18,11,52,54.8,20,6.6,6.6,6.6,6.2,,,,,KERMADEC ISLANDS (NEW ZEALAND),,KERMADEC ISLANDS,-28.886,-176.819,170,,,,,,,,,,,,,,,,,,,,,,,,
5355,No,1993,6,22,16,32,43.7,33,5.4,5.4,4.8,5.5,,,,,IRAN,,IRAN:  BOVIR AHMADI VA KOHKILUYEH,30.149,50.814,140,24,1,,,,,,,,,,,,,,,,,,,,,,
5356,No,1993,7,10,20,40,58.9,20,5.8,5.8,5.6,5.3,,,,,COSTA RICA,,"COSTA RICA:  TURRIALBA, CARTAGO",9.821,-83.622,100,2,1,,,9,1,,1,,,,,2,1,,,9,1,,1,,,,
5357,Yes,1993,7,12,13,17,11.9,17,7.7,7.7,7.6,6.6,,,,8,JAPAN,,JAPAN:  HOKKAIDO; RUSSIA:  SOUTHEAST; SOUTH KOREA,42.851,139.197,30,23,3,,,233,3,1207,4,,3,,,231,3,,,233,3,1207,4,2374,4,,
5358,No,1993,7,14,12,31,49.4,23,5.6,5.6,5.5,5.3,,,,,GREECE,,GREECE:  PATRAS,38.224,21.756,130,,,,,,,,1,,,,,,,,,,,,,,,,
5359,No,1993,8,1,0,20,40.5,13,5.5,5.5,5.1,5.2,,,,,SUDAN,,SUDAN:  KHARTOUM,15.385,31.69,15,2,1,,,9,1,,1,,,,,2,1,,,9,1,,1,,,,
6486,Yes,1993,8,7,19,42,41.9,13,6.3,6.3,6.1,6.2,,,,,JAPAN,,JAPAN,41.985,139.839,30,,,,,,,,,,,,,,,,,,,,,,,,
5360,Yes,1993,8,8,8,34,24.9,59,7.8,7.8,8,7.1,,,,9,USA TERRITORY,GU,"GUAM:  TUMAN BAY, APRA HARBOR",12.982,144.801,170,,,,,48,1,250,4,,,,,,,,,48,1,250,4,,,,
5362,No,1993,9,10,19,12,54.6,34,7.2,7.2,7.3,6.2,,,,,GUATEMALA,,GUATEMALA:  SOUTHWEST; MEXICO:  CHIAPAS,14.717,-92.645,100,1,1,,,3,1,,2,,,,,1,1,,,3,1,,2,,,,
5363,No,1993,9,21,3,28,55.4,11,6,6,5.8,5.7,,,,7,USA,OR,OREGON:  KLAMATH FALLS,42.314,-122.012,150,2,1,,,,,7.5,3,,,,,,,,,,,,,,,,
5364,No,1993,9,29,22,25,48.6,7,6.2,6.2,6.2,6.3,,,,8,INDIA,,"INDIA:  LATUR-OSMANABAD, KILLARI",18.066,76.451,60,11000,4,,,30000,4,300,4,,4,,4,11000,4,,,30000,4,300,4,,4,,4
5366,No,1993,10,13,2,6,0.3,25,6.9,6.9,7,6.4,,,,,PAPUA NEW GUINEA,,PAPUA NEW GUINEA:  EASTERN:  UPPER MARKHAM VALLEY,-5.889,146.02,170,60,2,,,200,3,5,2,,,,,60,2,,,200,3,5,2,,,,
5367,No,1993,10,20,16,15,59.6,37,5.1,,,5.1,,,,,NEPAL,,NEPAL: NW; INDIA:  UTTAR PRADESH,28.723,82.28,60,,,,,,,,1,,,,,,,,,,,,,,,,
5368,No,1993,11,12,13,27,28.1,10,4.6,,,4.6,,,,,INDIA,,INDIA:  LATUR,18.12,76.533,60,,,,,25,1,,1,,,,,,,,,25,1,,1,,,100,2
6487,Yes,1993,11,13,1,18,4.1,34,7,7,7,6.5,,,,,RUSSIA,,RUSSIA:  KAMCHATKA,51.934,158.647,50,,,,,,,,1,,,,,,,,,,,,1,,,,
5369,No,1993,11,30,20,37,12.8,18,5.6,5.6,5.6,5.2,,,,,CHINA,,CHINA:  SOUTHERN XINJIANG:  SHUFU,39.263,75.533,40,,,,,4,1,,1,100,1,,,,,,,4,1,,1,100,2,,
5370,No,1994,1,3,5,52,27.6,8,5.7,5.7,5.5,5.8,,,,,CHINA,,CHINA:  QINGHAI PROVINCE:  GONGHE,36.028,100.104,30,,,,,5,1,,1,56,2,56,2,,,,,5,1,,1,56,2,,
5371,No,1994,1,16,1,49,16.2,5,4.6,,,4.6,,,,5,USA,PA,"PENNSYLVANIA: READING, FELT TO CANADA",40.33,-76.037,150,,,,,,,,1,,,,,,,,,,,,1,,,,
5372,Yes,1994,1,17,12,30,55.3,18,6.7,6.7,6.8,6.4,,,,9,USA,CA,CALIFORNIA:  NORTHRIDGE,34.213,-118.537,150,60,2,,,7000,4,40000,4,40000,4,,,60,2,,,7000,4,40000,4,40000,4,,
5375,Yes,1994,1,21,2,24,29.9,20,7,7,7.2,6.2,,,,,INDONESIA,,INDONESIA:  KAU,1.015,127.733,170,9,1,,,300,3,,2,,,550,3,9,1,,,300,3,,2,,,550,3
5376,No,1994,2,3,9,5,4.2,8,5.8,5.8,5.5,5.4,,,,7,USA,WY,WYOMING:  AFTON,42.762,-110.976,150,,,,,,,,1,,,,,,,,,,,,1,,,,
5377,No,1994,2,5,23,34,9.9,14,6.2,6.2,6,5.8,,,,,UGANDA,,"UGANDA:  FORT PORTAL, KASESE; ZAMBIA",0.593,30.037,10,7,1,,,,2,70,4,,,,,7,1,,,,2,70,4,,,,
5379,No,1994,2,15,17,7,43.8,23,6.9,6.9,7,5.9,,,,,INDONESIA,,"INDONESIA:  SOUTHERN SUMATERA, LIWA, LAMPUNG",-4.967,104.302,60,207,3,,,2000,4,170.476,4,6000,4,,,207,3,,,2000,4,170.476,4,6000,4,,
5380,No,1994,2,23,8,2,4.7,6,6.1,6.1,6.1,6.1,,,,,IRAN,,IRAN:  SISTAN,30.853,60.596,140,6,1,,,,3,1.4,2,,,,,6,1,,,,3,1.4,2,,,,
5381,No,1994,3,1,3,49,0.8,13,6.1,6.1,6,5.8,,,,,IRAN,,IRAN:  SOUTHERN:  FIRUZABAD,29.096,52.617,140,2,1,,,50,1,,1,,,,1,2,1,,,50,1,,1,,,,1
5382,No,1994,3,2,3,38,3.8,59,5.4,5.4,5,5.2,,,,,HAITI,,HAITI: SAINT-LOUIS DU NORD,19.803,-72.799,90,4,1,,,,,,1,,,,1,4,1,,,,,,1,,,,1
5383,No,1994,3,9,23,28,6.7,563,7.6,7.6,,6.6,,,,,FIJI,,FIJI ISLANDS,-18.039,-178.413,170,,,,,,,,,,,,,,,,,,,,,,,,
6604,Yes,1994,4,8,1,10,40.8,13,6.4,6.4,6.3,6,,,,,JAPAN,,JAPAN:  OFF EAST COAST OF HONSHU ISLAND,40.608,143.683,30,,,,,,,,,,,,,,,,,,,,,,,,
5384,No,1994,5,1,12,0,35.7,19,6.1,6.1,6.3,6,,,,6,AFGHANISTAN,,"AFGHANISTAN:  HINDU KUSH:  TASHIAK, TERMIZ",36.901,67.163,40,160,3,,,,,,,,,,,,,,,160,3,,,,,,
9819,Yes,1994,5,24,4,0,42.1,16,6.5,6.5,6.7,6.2,,,,4,TAIWAN,,TAIWAN,23.959,122.448,30,,,,,,,,,,,,,,,,,,,,,,,,
5385,Yes,1994,6,2,18,17,34,18,7.8,7.8,7.2,5.7,,,,,INDONESIA,,INDONESIA:  JAVA,-10.477,112.835,60,,1,,,,,,1,,,,,238,3,,,423,3,2.2,2,1500,4,,
6832,Yes,1994,6,3,21,6,59.8,26,6.6,6.6,6.4,6.1,,,,,INDONESIA,,INDONESIA:  JAVA,-10.362,112.892,60,,,,,,,,,,,,,,,,,,,,,,,,
10108,Yes,1994,6,4,0,57,50.6,11,6.5,6.5,6.3,6,,,,,INDONESIA,,INDONESIA:  JAVA,-10.777,113.366,60,,,,,,,,,,,,,,,,,,,,,,,,
5386,No,1994,6,5,1,9,30.1,11,6.4,6.4,6.6,6.1,,,,,TAIWAN,,"TAIWAN:  CHI-LUNG, I-LAN, TAIPEI, NAN-AO",24.511,121.905,30,1,1,,,2,1,,2,,2,,,1,1,,,2,1,,2,,2,,
6833,Yes,1994,6,5,1,45,2.7,17,6.1,6.1,6.3,5.7,,,,,INDONESIA,,INDONESIA:  JAVA,-10.341,113.369,60,,,,,,,,,,,,,,,,,,,,,,,,
5387,No,1994,6,6,20,47,40.5,12,6.8,6.8,6.6,6.4,,,,,COLOMBIA,,"COLOMBIA:  CAUCA, HUILA",2.917,-76.057,160,650,3,,,,,2.4,2,200,3,,,650,3,,,,,2.4,2,200,3,,
5388,No,1994,6,9,0,33,16.2,631,8.2,8.2,,7,,,,,BOLIVIA,,"BOLIVIA-PERU: AREQUIPA, FELT IN N AND S AMERICA",-13.841,-67.553,160,5,1,,,,3,,2,,,,,5,1,,,,3,,2,,,,
5389,No,1994,6,18,3,25,15.8,14,6.8,6.8,7.1,6.2,,,,6,NEW ZEALAND,,NEW ZEALAND:  SOUTH ISLAND:  CHRISTCHURCH,-42.963,171.658,170,,,,,,,,1,,,,,,,,,,,,1,,,,
5390,No,1994,6,20,9,9,2.9,9,5.9,5.9,5.7,5.9,,,,,IRAN,,"IRAN:  FIRUZABAD, SHIRAZ",28.968,52.614,140,3,1,,,100,2,,3,,3,,3,3,1,,,100,2,,3,,3,,3
5391,No,1994,8,18,1,13,5.7,9,5.9,5.9,5.9,5.7,,,,,ALGERIA,,ALGERIA:  MASCARA,35.52,-0.106,15,171,3,,,,,,4,,4,,4,171,3,,,,,,4,,4,,
6488,Yes,1994,9,1,15,15,53,10,7,7,7,6.6,,,,6,USA,CA,CALIFORNIA:  NORTH:  HONEYDEW,40.402,-125.68,150,,,,,,,,1,,,,,,,,,,,,1,,,,
5392,Yes,1994,10,4,13,22,55.8,14,8.3,8.3,8.1,7.3,,,,9,RUSSIA,,RUSSIA:  KURIL ISLANDS; JAPAN:  HOKKAIDO,43.773,147.321,50,11,1,,,382,3,,3,,,,,11,1,,,382,3,,3,,,,
5393,Yes,1994,10,8,21,44,7.2,17,6.8,6.8,6.8,6.4,,,,,INDONESIA,,INDONESIA:  HALMAHERA,-1.258,127.98,170,1,1,,,52,2,,2,,,500,3,1,1,,,52,2,,2,,,500,3
6605,Yes,1994,10,9,7,55,39.5,33,7.3,7.3,7.1,6.5,,,,,RUSSIA,,RUSSIA:  KURIL ISLANDS,43.905,147.916,50,,,,,,,,,,,,,,,,,,,,,,,,
5394,Yes,1994,11,14,19,15,30.6,32,7.1,7.1,7.1,6.1,,,,,PHILIPPINES,,PHILIPPINES:  MINDORO,13.525,121.067,170,81,2,,,225,3,3.7,2,797,3,3288,4,81,2,,,225,3,3.7,2,797,3,3288,4
5395,No,1994,12,26,14,10,29.1,23,5.5,5.5,5,5.1,,,,7,USA,CA,"CALIFORNIA:  EUREKA, SAMOA, ARCATA, BLUE LAKE",40.741,-124.31,150,,,,,,,2.1,2,,,,,,,,,,,2.1,2,,,,
5397,Yes,1994,12,28,12,19,23,27,7.8,7.8,7.5,6.4,,,,9,JAPAN,,JAPAN:  HONSHU,40.525,143.419,30,3,1,,,200,3,170.4,4,,,,,3,1,,,200,3,170.4,4,,,,
5398,No,1994,12,31,2,57,20.8,33,5.3,5.3,5.3,5.7,,,,,CHINA,,"CHINA:  GUANGXI PROVINCE, GUANDONG PROVINCE",20.524,109.33,30,,,,,360,3,,2,1100,4,,,,,,,360,3,,2,1100,4,,
5399,Yes,1995,1,16,20,46,52.1,22,6.9,6.9,6.8,6.3,,,,11,JAPAN,,"JAPAN:  SW HONSHU:  KOBE, AWAJI-SHIMA, NISHINOMIYA",34.583,135.018,30,5502,4,,,36896,4,100000,4,200000,4,,,5502,4,,,36896,4,100000,4,200000,4,,
5402,No,1995,1,19,15,5,3.4,17,6.5,6.5,6.6,6.3,,,,,COLOMBIA,,"COLOMBIA:  BOGOTA, MANIZALES, MIRAFLORES",5.05,-72.916,160,7,1,,,,2,,2,512,3,20,1,7,1,,,,2,,2,512,3,20,1
5403,No,1995,2,5,22,51,5.1,21,7.1,7.1,7.5,6.5,,,,,NEW ZEALAND,,NEW ZEALAND:  NORTH ISLAND; S ISLAND:  CHRISTCHURCH,-37.759,178.752,170,,,,,,,,,,,,,,,,,,,,,,,,
5404,No,1995,2,8,18,40,25.3,74,6.4,6.4,,6.3,,,,,COLOMBIA,,"COLOMBIA:  CALI, PEREIRA, ARMENIA, CALARCA",4.104,-76.622,160,45,1,,,400,3,50,4,2000,4,,,45,1,1,,400,3,50,4,2000,4,,
5405,No,1995,2,23,21,3,1.3,10,5.9,5.9,5.7,5.8,,,,7,CYPRUS,,"CYPRUS:  PAPHOS, NICOSIA, ARODHES, PERISTERONA",35.046,32.279,130,2,1,,,5,1,4.34,2,70,2,570,3,2,1,,,5,1,4.34,2,70,2,570,3
6491,No,1995,3,19,23,53,14.9,33,6.9,6.9,7.1,6.2,,,,,INDONESIA,,INDONESIA:  IRIAN JAYA REGION,-4.183,135.109,170,,,,,,,,1,,,,1,,,,,,,,1,,,,1
5406,No,1995,4,1,3,49,33.5,11,5.4,5.4,4.9,5.8,,,,,JAPAN,,"JAPAN:  NIIGATA PREFECTURE, SADO",37.925,139.186,30,,,,,,,,2,,,,,,,,,,,,,,,,
5407,Yes,1995,4,7,22,6,56.8,21,7.4,7.4,8,6.8,,,,,SAMOA,,SAMOA:  APIA; AMERICAN SAMOA:  PAGO PAGO; NIUE,-15.199,-173.529,170,,,,,,,,,,,,,,,,,,,,,,,,
6492,Yes,1995,4,21,0,34,46,21,7.2,7.2,7.3,6.3,,,,,PHILIPPINES,,PHILIPPINES:  SAMAR,12.059,125.58,170,,,,,,,,,,,,,,,,,,,,,,,,
6493,Yes,1995,4,21,5,17,1.3,23,6.8,6.8,6.9,5.6,,,,,PHILIPPINES,,PHILIPPINES:  SAMAR,12.047,125.92,170,,,,,,,,,,,,,,,,,,,,,,,,
5408,Yes,1995,5,13,8,47,12.7,14,6.6,6.6,6.6,6.2,,,,8,GREECE,,"GREECE:  GREVENA-KOZANI, THESSALONIKI, YUGOSLAVIA",40.149,21.695,130,,,,,25,1,450,4,12000,4,,,,,,,25,1,450,4,12000,4,,
5410,Yes,1995,5,14,11,33,21.1,13,6.9,6.9,6.9,6.2,6.9,,,7,INDONESIA,,"INDONESIA:  TIMOR, DILI, MALIANA, MAUBARA",-8.452,125.049,60,,,,,,,,,,,,,11,1,,,19,1,,1,,2,,
5411,Yes,1995,5,16,20,12,44.2,20,7.7,,7.7,6.9,7.7,,,3,NEW CALEDONIA,,NEW CALEDONIA:  NOUMEA; VANUATU:  PORT-VILA,-23.008,169.9,170,,,,,,,,,,,,,,,,,,,,,,,,
5412,Yes,1995,5,27,13,3,52.6,11,7.1,,7.1,6.7,7.5,,,9,RUSSIA,,"RUSSIA:  SAKHALIN IS:  NEFTEGORSK, OKHA, MOSKALVO",52.629,142.827,50,1989,4,,,750,3,300,4,,,,,1989,4,,,750,3,300,4,,,,
5413,Yes,1995,6,15,0,15,48.7,14,6.5,6.5,6.5,6.1,,,,7,GREECE,,"GREECE:  AIYION, ERATINI",38.401,22.283,130,26,1,,,60,2,660,4,,,,,26,1,,,60,2,660,4,,,,
5414,No,1995,7,11,21,46,39.7,13,6.8,6.8,7.1,6.1,,,,,CHINA,,"CHINA: YUNNAN PROVINCE: LANCANG, MENGLIAN; THAILAND",21.966,99.196,30,11,1,,,136,3,36.1,4,100000,4,100000,4,11,1,,,136,3,36.1,4,100000,4,,
5415,No,1995,7,21,22,44,4.5,13,5.6,5.6,5.4,5.7,,,,,CHINA,,"CHINA:  GANSU, YONGDENG, BAIYIN, DINGXI, JINGTAI",36.427,103.123,30,14,1,,,60,1,,3,4500,4,,,14,1,,,60,1,,3,4500,4,,
5416,Yes,1995,7,30,5,11,23.6,46,8,8,7.3,6.6,,,,7,CHILE,,"CHILE:  ANTOFAGASTA, CALAMA, MEJILLONES",-23.34,-70.294,160,3,1,,,58,2,1.66,2,115,3,,,3,1,,,,,1.791,2,115,3,,
5417,Yes,1995,8,16,10,27,28.6,30,7.7,7.7,7.8,6.5,,,,,PAPUA NEW GUINEA,,"PAPUA NEW GUINEA:  RABAUL, KOKOPO, NEW BRITAIN",-5.799,154.178,170,,,,,,,,1,,,,,,,,,,,,1,,,,
5418,Yes,1995,9,14,14,4,31.4,23,7.4,7.4,7.2,6.4,,,,,MEXICO,,"MEXICO:  GUERRERO, OAXACA, PUEBLA, MEXICO CITY",16.779,-98.597,150,3,1,,,100,2,,2,,,,,3,,,,100,2,,2,,,,
5419,No,1995,10,1,15,57,16.2,33,6.4,6.4,6.2,5.8,,,,8,TURKEY,,"TURKEY:   DINAR, EVCILER",38.063,30.134,140,95,2,,,348,3,205.8,4,5100,4,,,95,2,,,348,3,205.8,4,5100,4,,
5420,No,1995,10,3,1,51,23.9,24,7,7,7,6.5,,,,,ECUADOR,,ECUADOR:  QUITO,-2.75,-77.881,160,2,1,,,5,1,,1,83,2,,,2,1,,,5,1,,1,83,2,,
5421,No,1995,10,6,5,23,18.5,9,6,6,5.8,5.7,,,,,USA,AK,ALASKA:  FAIRBANKS NORTH STAR COUNTY,65.17,-148.565,150,,,,,,,,1,,,,,,,,,,,,1,,,,
5422,No,1995,10,6,18,9,45.9,33,6.8,6.8,6.9,5.8,,,,,INDONESIA,,"INDONESIA:  SUMATERA, JAMBI PROVINCE",-2.045,101.436,60,84,2,,,1868,4,,4,17600,4,,,84,2,,,1868,4,,4,17600,4,,
5423,Yes,1995,10,9,15,35,53.9,33,8,8,7.4,6.6,,,,,MEXICO,,"MEXICO:  JALISCO, MANZANILLO, SAN PATRICIO MELAQUE",19.055,-104.205,150,49,2,,,200,3,,2,,2,,,50,1,,,200,3,,2,,2,,
6495,Yes,1995,10,18,10,37,26.3,28,7.1,7.1,6.9,6.4,,,,,JAPAN,,JAPAN:  RYUKU IS.,27.929,130.175,30,,,,,1,1,,,,,,,,,,,1,1,,1,,,,
6496,Yes,1995,10,19,2,41,36.1,20,6.8,6.8,6.9,6.3,,,,,JAPAN,,JAPAN:  RYUKU IS.,28.094,130.148,30,,,,,,,,,,,,,,,,,,,,,,,,
5424,No,1995,10,23,22,46,50.8,10,6.2,6.2,6.4,5.8,,,,,CHINA,,CHINA:  YUNNAN PROVINCE:  WUDING,26.003,102.227,30,81,2,,,800,3,80,4,200,3,200,3,81,2,,,800,3,80,4,200,3,,
6606,Yes,1995,11,1,0,35,32.7,20,6.7,6.7,6.4,6.3,,,,,CHILE,,CHILE:  NEAR CENTRAL COAST,-28.906,-71.417,160,,,,,,,,,,,,,,,,,,,,,,,,
5426,Yes,1995,11,22,4,15,11.9,10,7.2,7.2,7.3,6.2,,,,8,EGYPT,,EGYPT:  NUWAYBI; SAUDI ARABIA; ISRAEL; JORDAN,28.826,34.799,15,11,1,,,47,1,,2,,,,,11,1,,,47,1,,2,,1,,
5427,Yes,1995,12,3,18,1,8.9,33,7.9,7.9,7.9,6.6,,,,5,RUSSIA,,"RUSSIA:  KURIL ISLANDS:  ITURUP, MATUA, KUNASHIR",44.663,149.3,50,,,,,,,,,,,,,,,,,,,,,,,,
5428,Yes,1996,1,1,8,5,10.8,24,7.9,7.9,7.6,6.3,,,,6,INDONESIA,,"INDONESIA:  SULAWESI: MINAHASSA PENINSULA, TOLITOLI",0.729,119.931,170,,,,,,,,1,,,,,9,1,,,63,2,1.2,2,400,3,,
5430,No,1996,2,3,11,14,20.1,11,6.6,6.6,6.5,6.4,,,,9,CHINA,,CHINA:  YUNNAN PROVINCE:  LIJIANG,27.291,100.276,30,322,3,,,17057,4,506,4,959000,4,959000,4,322,3,,,17057,4,506,4,959000,4,,
5433,Yes,1996,2,17,5,59,30.5,33,8.2,8.2,8.1,6.5,,,,,INDONESIA,,"INDONESIA:  NEW GUINEA:  IRIAN JAYA:  BIAK, SUPIORI",-0.891,136.952,170,54,2,,,423,3,4.2,2,5043,4,,,164,3,,,423,3,4.2,2,5043,4,,
5435,Yes,1996,2,21,12,51,1.3,10,7.5,7.5,6.6,5.8,,,,4,PERU,,"PERU:  NORTHERN:  CHIMBOTE, CALLAO",-9.593,-79.587,160,,,,,,,,,,,,,12,1,,,57,2,,,15,1,22,1
6497,Yes,1996,2,25,3,8,15.8,21,7.1,7.1,6.9,6.1,,,,,MEXICO,,MEXICO:  OFF COAST OF GUERRERO,15.978,-98.07,150,,,,,,,,,,,,,,,,,,,,,,,,
5436,No,1996,3,19,15,0,26,28,6.3,6.3,6,5.7,,,,,CHINA,,"CHINA:  S. XINJIANG:   ARTUX, JIASHI, BACHU, KASHI",39.993,76.696,40,24,1,,,128,3,24,3,15314,4,,,24,1,,,128,3,24,3,15314,4,,
5437,No,1996,3,28,23,3,49.8,33,5.9,5.9,5.2,5.8,,,,6,ECUADOR,,"ECUADOR:  COTOPAXI, PASTAZA, TUNGURAHUA, AMBATO",-1.036,-78.737,160,27,1,,,,,7,3,,,,,,,,,,,,,,,,
5438,No,1996,4,29,14,40,41,44,7.2,7.2,7.5,6.3,,,,,SOLOMON ISLANDS,,SOLOMON ISLANDS:  BOUGAINVILLE ISLAND,-6.518,154.999,170,1,1,,,,,,2,,3,,,,,,,,,,2,,3,,
5439,No,1996,5,3,3,32,47.1,26,6,6,6,5.5,,,6,8,CHINA,,"CHINA:  NEI MONGOL:  BAOTOU, BEIJING, HOHHOT",40.774,109.661,30,23,1,,,330,3,,4,,,,,23,1,,,330,3,,4,,,,
5440,Yes,1996,6,10,4,3,35.4,33,7.9,7.9,7.6,6.6,,,,6,USA,AK,ALASKA:  ANDREANOF ISLANDS,51.564,-177.632,150,,,,,,,,,,,,,,,,,,,,,,,,
6498,Yes,1996,6,10,15,24,56,24,7.3,7.3,7.1,5.9,,,,,USA,AK,ALASKA:  ANDREANOF ISLANDS,51.478,-176.847,150,,,,,,,,,,,,,,,,,,,,,,,,
6499,Yes,1996,9,4,18,16,1.9,33,5.7,5.7,5.1,5.4,,,,,JAPAN,,"HONSHU ISLAND, JAPAN",31.555,139.931,30,,,,,,,,,,,,,,,,,,,,,,,,
6500,Yes,1996,9,5,8,14,14.4,10,6.9,6.9,7,6.2,,,,,CHILE,,CHILE:  EASTER ISLAND REGION,-22.118,-113.436,160,,,,,,,,,,,,,,,,,,,,,,,,
5441,No,1996,9,5,20,44,9.2,10,6,6,6,5.6,,,,8,CROATIA,,"BALKANS NW:  CROATIA:  STON, SLANO",42.803,17.936,130,,,,,,2,,3,,,,,,,,,,2,,3,,,,
10233,Yes,1996,9,5,23,42,6,20,6.8,6.8,6.4,6.4,,,,,TAIWAN,,TAIWAN REGION,21.898,121.498,30,,,,,,,,,,,,,,,,,,,,,,,,
6332,Yes,1996,10,18,10,50,20.8,10,6.6,6.6,6.6,6,,,,,JAPAN,,JAPAN:  KYUSHU ISLAND,30.568,131.093,30,,,,,,,,,,,,,,,,,,,,,,,,
6607,Yes,1996,10,19,14,44,40.7,22,6.7,6.7,6.6,6.3,,,,,JAPAN,,JAPAN:  KYUSHU ISLAND,31.885,131.468,30,,,,,,,,1,,,,,,,,,,,,1,,,,
5442,Yes,1996,11,12,16,59,44,33,7.7,7.7,7.3,6.5,,,,8,PERU,,"PERU:  CHINCHA ALTA, ACARI, NAZCA, MARCONA",-14.993,-75.675,160,14,1,,,560,3,,4,,,4000,4,14,1,,,560,3,,4,,,4000,4
6501,Yes,1996,12,2,22,17,59.2,49,6.7,6.7,6.6,6,,,,,JAPAN,,JAPAN:  KYUSHU,31.789,131.314,30,,,,,,,,,,,,,,,,,,,,,,,,
5443,No,1997,1,9,13,43,31.5,22,5.8,5.8,5.8,5.7,,,,7,KYRGYZSTAN,,"KYRGYZSTAN:  DZHERGETAL, KOSHTEBE, KAZARMAN",41.026,74.284,40,,,,,,,,1,,,,,,,,,,,,,,,,
5444,No,1997,1,11,20,28,26,33,7.2,7.2,6.9,6.5,,,,,MEXICO,,"MEXICO:  MICHOACAN, ARTEAGA",18.219,-102.756,150,1,1,,,,,,2,,,,,,,,,,,,,,,,
5445,No,1997,1,12,12,10,51.3,10,4.7,,4.7,4.8,,,,6,ALBANIA,,"ALBANIA:  BERAT, URA VAJGURORE, GRAMSH, CERRIK",40.956,19.672,130,,,,,,,,1,,,,,,,,,,,,,,,,
5446,No,1997,1,21,1,48,30.1,33,5.9,5.9,5.8,5.3,,,,,CHINA,,CHINA:  SOUTHERN XINJIANG:  JIASHI COUNTY,39.474,76.998,40,12,1,,,40,1,,3,14000,4,,,12,1,,,40,1,,3,14000,4,,
5447,No,1997,2,4,10,37,47.1,10,6.5,6.5,6.8,5.9,,,,8,IRAN,,"IRAN:  BOJNURD, SHIRVAN, ESFARAYEN",37.661,57.291,140,88,2,,,1948,4,30,4,5500,4,11000,4,88,2,,,1948,4,30,4,5500,4,11000,4
5449,No,1997,2,27,21,8,2.3,33,7.1,7.1,7.3,6.3,,,7.3,,PAKISTAN,,"PAKISTAN:  HARNAI-SIBI, QUETTA",29.976,68.208,60,60,2,,,,3,,2,500,3,500,3,60,2,,,,3,,2,500,3,,
5450,No,1997,2,28,12,57,18.6,10,6.1,6.1,6.1,5.5,,,,7,IRAN,,IRAN:  ARDABIL,38.075,48.05,140,1100,4,,,2600,4,,4,12000,4,,,1100,4,,,2600,4,,4,12000,4,,
5452,No,1997,3,1,6,4,14.1,22,5.6,5.6,5.5,5.2,,,,,CHINA,,"CHINA:  S. XINJIANG, JIASHI COUNTY, KASHI",39.422,76.839,40,2,1,,,6,1,,3,4000,3,,,2,1,,,6,1,,3,4000,4,,
5453,No,1997,3,19,19,57,11.9,50,4.9,,,4.9,,,,,PAKISTAN,,"PAKISTAN:  BAJAUR, CHITRAL",34.872,71.62,60,15,1,,,,,,1,,,,,,,,,,,,,,,,
5454,No,1997,3,26,8,31,47.1,10,6.1,6.1,5.9,5.6,,,,6,JAPAN,,"JAPAN:  KYUSHU, KAGOSHIMA",31.92,130.429,30,,,,,,,,2,,,,,,,,,,,,,,,,
5455,No,1997,4,5,23,46,19.5,33,5.9,5.9,5.9,5.4,,,,,CHINA,,"CHINA:  S. XINJIANG, JIASHI COUNTY",39.513,76.865,40,,,,,23,1,,3,3000,4,,,,,,,23,1,,3,3000,4,,
5456,No,1997,4,6,4,36,35.2,33,6,6,5.8,5.6,,,,,CHINA,,CHINA:  S. XINJIANG,39.537,76.998,40,,,,,,,,3,,,,,,,,,,,,3,,,,
5457,No,1997,4,11,5,34,42.7,15,6.2,6.2,6.1,5.8,,,,,CHINA,,"CHINA:  S. XINJIANG, BACHU, SHULE, YINGJISHA",39.527,76.941,40,9,1,,,89,2,,4,2000,4,,,9,1,,,89,2,,4,2000,4,,
5458,Yes,1997,4,21,12,2,26.4,33,7.7,7.7,7.9,6.4,,,,,SOLOMON ISLANDS,,SOLOMON ISLANDS:  SANTA CRUZ ISLANDS; VANUATU,-12.584,166.676,170,,,,,,,,1,,,,,,,,,,,,1,7,1,,
5459,No,1997,4,22,9,31,23.2,5,6.7,6.7,6.5,6,,,,,TRINIDAD AND TOBAGO,,TOBAGO,11.112,-60.892,90,,,,,2,1,25,4,3,1,,,,,,,2,1,25,4,3,1,,
7201,No,1997,4,23,19,44,28.4,101,6.5,6.5,,6.2,,,,7,USA TERRITORY,GU,GUAM,13.986,144.901,170,,,,,4,1,,1,,,,,,,,,4,1,,1,,,,
5461,No,1997,5,10,7,57,29.7,10,7.2,7.2,7.3,6.4,,,,10,IRAN,,"IRAN:  BIRJAND, GHAEN",33.825,59.809,140,1728,4,,,2300,4,100,4,10533,4,5474,4,1728,4,,,2300,4,100,4,10533,4,5474,4
5463,No,1997,5,13,14,13,45.7,196,6.4,6.4,,6.1,,,,,AFGHANISTAN,,"AFGHANISTAN:  HINDU-KUSH, MALAKAND-PESHAWAR",36.411,70.945,40,1,1,,,,,,2,,,,,,,,,,,,,,,,
5465,No,1997,5,21,22,51,28.7,36,5.8,5.8,5.6,6,,,,8,INDIA,,INDIA:  SOUTHERN:  JABALPUR,23.083,80.041,60,56,2,,,1000,4,143,4,8546,4,8546,4,56,2,,,1000,4,143,4,8546,4,52690,4
5466,No,1997,6,25,19,38,40.6,10,5.9,5.9,5.8,5.5,,,,,IRAN,,"IRAN:  BIRJAND, QAYEN",33.938,59.475,140,,,,,,,,2,100,2,5000,4,,,,,,,,3,100,2,5000,4
5467,Yes,1997,7,9,19,24,13.1,20,7,7,6.8,6.2,,,,5,VENEZUELA,,VENEZUELA:  CARIACO-CUMANA,10.598,-63.486,90,81,2,,,522,3,81,4,,,,,81,2,,,522,3,81,4,,,,
5469,No,1997,7,21,8,45,49.1,5,5,,,5,,,,,SOUTH AFRICA,,SOUTH AFRICA:  AVGOLD'S HARTEBEESTFONTEIN MINE,-26.857,26.619,10,15,1,,,46,1,,,,,,,15,1,,,46,1,,,,,,
5471,No,1997,8,20,7,15,15.9,33,6,6,6,5.9,,,,,INDONESIA,,"INDONESIA:  N. SUMATERA, ACEH, BANDA ACEH, MEDAN",4.358,96.494,60,,,,,,,,2,,3,,,,,,,,,,2,,3,,
5472,No,1997,9,26,0,33,12.2,10,5.7,5.7,5.6,5.5,,,,8,ITALY,,"ITALY:  CENTRAL:  MARCHE, UMBRIA",43.048,12.879,130,,,,,,,,1,,,,,,,,,,,,1,,,,
5473,No,1997,9,26,9,40,26.3,10,6,6,6,5.7,,,,10,ITALY,,"ITALY:  CENTRAL:  MARCHE, UMBRIA",43.084,12.812,130,14,1,,,100,2,4524.9,4,80000,4,,,14,1,,,100,2,4524.9,4,80000,4,,
5474,No,1997,9,28,1,38,28.6,33,5.9,5.9,5.5,5.6,,,,,INDONESIA,,"INDONESIA:  SULAWESI, PAREPARE",-3.776,119.727,170,20,1,,,300,3,1.1,2,650,3,,,20,1,,,300,3,1.1,2,650,3,,
7447,Yes,1997,9,30,6,27,24.7,10,6.2,6.2,6.5,5.5,,,,,JAPAN,,JAPAN:  HONSHU:  S,31.959,141.878,30,,,,,,,,,,,,,,,,,,,,,,,,
6820,Yes,1997,10,14,9,53,18.1,167,7.7,7.7,,6.7,,,,,TONGA,,TONGA ISLANDS,-22.101,-176.772,170,,,,,,,,,,,,,,,,,,,,,,,,
5475,No,1997,10,15,1,3,33.4,58,7.1,7.1,6.8,6.8,,,,,CHILE,,"CHILE:  PUEBLO NUEVO, COQUIMBO, LA CHIMBA",-30.933,-71.22,160,8,1,,,300,3,48,4,5000,4,15700,4,8,1,,,300,3,48,4,5000,4,15700,4
5476,No,1997,11,8,10,2,52.6,33,7.5,7.5,7.9,6.2,,,,,CHINA,,CHINA:  TIBET (XIZANG PROVINCE),35.069,87.325,40,,,,,,,,,,,,,,,,,,,,,,,,
5477,No,1997,11,18,13,7,41.7,33,6.6,6.6,6.4,5.9,,,,,GREECE,,"GREECE:  IONIAN SEA, AMALIAS, GARGALIANOI, KALAMAI",37.57,20.656,130,,,,,,,,1,,,,,,,,,,,,,,,,
5478,No,1997,11,21,11,23,6.3,54,6.1,6.1,,5.9,,,,,INDIA,,"INDIA-BANGLADESH:  CHITTAGONG, BANGLADESH",22.212,92.702,60,23,1,,,200,3,,1,1,1,,1,23,1,,,200,3,,1,1,1,,1
5479,No,1997,11,25,12,14,33.6,24,7,7,6.8,6.1,,,,,INDONESIA,,"INDONESIA:  SULAWESI:  MINAHASSA PENINSULA,GORONTALO",1.241,122.536,170,,,,,,,,1,,,,,,,,,,,,,,,,
5480,Yes,1997,12,5,11,26,54.6,33,7.8,7.8,7.6,6.3,,,,7,RUSSIA,,"RUSSIA:  KAMCHATKA:  UST-KAMCHATSK, PETROPAVLOVSK",54.841,162.035,50,,,,,,,,,,,,,,,,,,,,,,,,
5481,No,1998,1,10,3,50,41.5,30,5.7,5.7,5.7,5.8,,,,8,CHINA,,"CHINA:  NORTHEASTERN: SHANGYI-ZHANGBEI, HEBEI",41.083,114.5,30,70,2,,,11500,4,285.5,4,70000,4,,,70,2,,,11500,4,285.5,4,70000,4,,
5483,No,1998,1,10,8,20,5.7,33,6.6,6.6,6.2,6.1,,,,,GUATEMALA,,"GUATEMALA:  QUEZALTENANGO, SAN MARCOS, SOLOLA",14.374,-91.473,100,,,,,27,1,,1,,2,,2,,,,,27,1,,1,,2,,1
5484,No,1998,2,3,3,2,0.2,33,6.3,6.3,6.2,6,,,,,MEXICO,,"MEXICO:  OAXACA, SAN AGUSTIN, SAN FRANCISCO",15.883,-96.298,150,,,,,,,,2,,,,,,,,,,,,2,,,,
5485,No,1998,2,4,14,33,21.2,33,5.9,5.9,6.1,5.6,,,,,AFGHANISTAN,,AFGHANISTAN:  ROSTAQ; TAJIKISTAN:  DUSHANBE,37.075,70.089,40,2323,4,,,818,3,,4,8094,4,,,2323,,,,818,3,,4,8094,4,,
5486,No,1998,2,20,12,18,6.2,236,6.4,6.4,5.7,5.8,,,,,AFGHANISTAN,,"AFGHANISTAN-TAJIKISTAN:  YAR HUSAIN, ASTOR",36.479,71.086,40,1,1,,,11,1,,2,35,1,,,1,,1,,11,1,,2,35,1,,
5487,No,1998,3,14,19,40,27,9,6.6,6.6,6.9,5.9,,,,,IRAN,,"IRAN:  GOLBAF, BAFT, KERMAN",30.154,57.605,140,5,1,,,50,1,,3,2000,4,,,5,1,,,50,1,,3,2000,4,,
5488,No,1998,3,19,13,51,33.7,33,5.6,5.6,5.6,5.4,,,,,CHINA,,"CHINA:  SOUTHERN XINJIANG: ARTUX, KASHGAR",39.977,76.731,40,,,,,,,,1,400,3,,,,,,,,,,1,400,3,,
5489,Yes,1998,3,25,3,12,25,10,8.1,8.1,8,6.6,,,,,ANTARCTICA,,BALLENY ISLANDS,-62.877,149.527,20,,,,,,,,,,,,,,,,,,,,,,,,
5490,No,1998,4,3,7,26,36.6,10,5.2,5.2,4.8,5.1,,,,,ITALY,,"ITALY:  CENTRAL:  GUALDO, TADINO-NOCERA UMBRA",43.164,12.701,130,,,,,,,,1,300,3,,,,,,,5,1,,1,300,3,,
5491,No,1998,4,10,15,0,53.1,33,5.8,5.8,5.7,5.3,,,,,IRAN,,"IRAN:  BIRJAND, GONABAD",32.457,59.976,140,12,1,,,10,1,,2,,,600,3,12,1,,,10,1,,2,,,600,3
5492,No,1998,4,12,10,55,32.5,10,5.7,5.7,5.7,5.3,,,,8,AUSTRIA,,"AUSTRIA:  ARNOLDSTEIN; SLOVENIA:  BOVEC, KOBARID",46.245,13.652,120,1,1,,,,,,2,,,,,1,1,,,,,,2,,,,
6502,Yes,1998,5,3,23,30,21.9,33,7.5,7.5,7.3,6.4,,,,,TAIWAN,,TAIWAN,22.306,125.308,30,,,,,,,,,,,,,,,,,,,,,,,,
5493,No,1998,5,22,4,48,50.4,24,6.6,6.6,6.6,5.9,,,,,BOLIVIA,,"BOLIVIA:  CENTRAL:  AIQUILE, TOTORA",-17.731,-65.431,160,105,3,,,150,3,,3,,3,,,105,3,,,150,3,,3,,3,,
5494,No,1998,5,28,21,11,44.1,33,5.6,5.6,5.6,5.2,,,,,CHINA,,CHINA:  SOUTHERN XINJIANG,37.388,78.843,40,,,,,28,1,,3,2000,4,,,,,,,28,1,,3,2000,4,,
5495,No,1998,5,30,6,22,28.9,33,6.6,6.6,6.9,5.9,,,,,AFGHANISTAN,,"AFGHANISTAN:  BADAKHSHAN, TAKHAR",37.106,70.11,40,4700,4,,,,4,10,3,,4,,,4700,4,,,,4,10,3,,4,,
10482,Yes,1998,5,30,18,18,15,33,6.2,6.2,,,,,,,JAPAN,,"SANRIKU, JAPAN",39.027,143.441,30,,,,,,,,,,,,,,,,,,,,,,,,
5497,No,1998,6,27,13,55,52,33,6.3,6.3,6.2,5.8,,,,8,TURKEY,,"TURKEY:  ADANA, CEYHAN",36.878,35.307,140,145,3,,,1500,4,550,4,1700,4,,,145,3,,,1500,4,550,4,1700,4,,
5498,No,1998,7,9,5,19,7.3,10,6.2,6.2,6,5.7,,,,,AZORES (PORTUGAL),,"AZORES:  FAIAL, PICO, TERCEIRA",38.65,-28.626,130,10,1,,,100,2,72,4,,3,,3,10,1,,,100,2,72,4,,3,,3
5499,No,1998,7,9,14,19,18.4,26,6,6,,5.9,,,,,ARMENIA,,"ARMENIA-AZERBAIJAN-IRAN:  ASTARA, BILASUVAR, IMISLI",38.717,48.507,40,,,,,,,,2,,,,,,,,,,,,2,,,,
5500,No,1998,7,17,4,51,14.7,13,5.7,5.7,5.4,5.5,,,,5,TAIWAN,,"TAIWAN:  CHIA-I, TAINAN, HUALIEN, KAO-HSIUNG",23.407,120.736,30,5,1,,,27,1,,1,,,,,5,1,,,27,1,,1,,,,
5501,Yes,1998,7,17,8,49,16.1,25,7,7,7.1,5.8,,,,,PAPUA NEW GUINEA,,PAPUA NEW GUINEA:  SISSANO,-2.943,142.582,170,,,,,,,,,,,,,1636,4,,,1000,3,,3,,3,,
5502,No,1998,8,4,18,59,20.1,33,7.2,7.2,7.1,6.2,,,,,ECUADOR,,"ECUADOR:  BAHIA DE CARAQUEZ, CANOA",-0.593,-80.393,160,3,1,,,40,1,,2,,,,3,3,1,,,40,1,,2,,,,2
5503,No,1998,8,27,9,3,36.6,33,6.4,6.4,6.4,5.6,,,,,CHINA,,CHINA:  SOUTHERN XINJIANG:  JIASHI,39.66,77.343,40,3,1,,,7,1,,3,3600,4,18771,4,3,1,,,7,1,,3,3600,4,18771,4
5504,No,1998,9,28,13,34,30.4,152,6.6,6.6,,6.4,,,,,INDONESIA,,"INDONESIA:  JAWA, MALANG, BLITAR, BANTUR",-8.194,112.413,60,1,1,,,,,,1,38,1,62,2,1,1,,,,,,1,38,1,62,2
5505,No,1998,9,29,22,14,49.5,10,5.5,5.5,5.3,5.2,,,,8,SERBIA,,"BALKANS NW:  SERBIA:  BELGRADE, LJIG, VALJEVO",44.209,20.08,130,1,1,,,17,1,,2,,3,,,1,1,,,17,1,,2,,3,,
5506,No,1998,9,30,23,42,54.2,10,5.3,5.3,5.1,5,,,,,ALBANIA,,"ALBANIA:  KUKES, PESHKOPI",41.925,20.39,130,,,,,,,,2,700,3,,,,,,,,,,2,700,3,,
5507,No,1998,10,5,2,20,33.9,39,5.4,5.4,4.9,5.3,,,,,IRAN,,"IRAN:  WESTERN:  DARREH SHAHR, POL-E-DOKHTAR",33.199,47.225,140,,,,,,,,1,,,100,2,,,,,,,,1,,,100,2
5508,No,1998,11,13,13,1,10.5,33,5.4,5.4,5.1,5.3,,,,,IRAN,,IRAN:  SOUTHERN:  BIGHERD-KHONJ,27.791,53.608,140,5,1,,,105,3,,2,,,850,3,5,1,,,105,3,,,,2,850,3
5509,No,1998,11,19,11,38,14.8,33,5.6,5.6,5.6,5.2,,,,,CHINA,,"CHINA:  SICHUAN PROVINCE: HUAPING, LIJIANG, NINGLAG",27.308,101.029,30,5,1,,,1543,4,70,4,12000,4,12000,4,5,1,,,1543,4,70,4,12000,4,,
5510,Yes,1998,11,29,14,10,31.9,33,7.7,7.7,7.7,6.5,,,,7,INDONESIA,,"INDONESIA:  MANGOLE, MANADO, TALIABU",-2.071,124.891,170,41,1,,,107,3,200,4,1000,3,,,41,1,,,107,3,200,4,1000,3,,
5511,No,1998,12,1,7,37,56.1,10,4.5,,,4.5,,,,,CHINA,,CHINA:  YUNNAN PROVINCE  SOUTHEASTERN,26.373,104.021,30,,,,,84,2,22.6,3,21872,4,21872,4,,,,,84,2,22.6,3,21872,4,,
5512,No,1999,1,25,18,19,16.8,17,6.2,6.2,5.7,5.9,,,,,COLOMBIA,,"COLOMBIA:  ARMENIA, CALARCA, PEREIRA, CALDAS, HUILA",4.461,-75.724,160,1185,4,700,3,4750,4,1857.366,4,,4,,,1185,4,700,3,4750,4,1857.366,4,,4,,
5514,No,1999,2,1,23,57,52.9,33,3.2,,,3.2,,,,3,RUSSIA,,"RUSSIA:  MAKHACHKALA, DAGESTAN",42.962,46.954,40,,,,,,,0.9,1,,,,,,,,,,,0.9,1,,,,
5515,No,1999,2,2,13,45,16.8,10,4.8,,,4.8,,,,7,SPAIN,,"SPAIN:  MULA, PUEBLA DE MULA",38.193,-1.566,130,,,,,20,1,44.004,4,,,,3,,,,,20,1,44.004,4,,,,3
5516,No,1999,2,11,14,8,51.6,33,6,6,5.8,5.4,,,,,AFGHANISTAN,,"AFGHANISTAN:  LOWGAR, VARDAK, KABUL",34.259,69.364,40,70,2,,,500,3,,3,7000,4,7000,4,70,2,,,500,3,,3,7000,4,,
5517,No,1999,3,4,5,38,26.5,33,6.6,6.6,6.5,6.2,,,,,IRAN,,IRAN:  SOUTHERN:  KERMAN,28.343,57.193,140,1,1,,,,,,2,,,517,3,1,1,,,,,,2,,,517,3
5518,No,1999,3,11,13,18,9.3,33,5.1,5.1,5.2,5.1,,,,,CHINA,,CHINA:  NE: ZHANGBEI COUNTY,41.131,114.658,30,,,,,3,1,,2,200,3,,,,,,,3,1,,2,200,3,,
5519,No,1999,3,28,19,5,11,15,6.6,6.6,6.6,6.4,,,,8,INDIA,,"INDIA:  CHAMOLI, RUDRAPRAYAG, TEHRI GARHWAL",30.512,79.403,60,100,2,,,394,3,70,4,21100,4,21100,4,100,2,,,394,3,,4,21100,4,,
5520,No,1999,4,3,6,17,18.3,87,6.8,6.8,6.2,6.1,,,,6,PERU,,"PERU:  CAMANA, AREQUIPA",-16.66,-72.662,160,1,1,,,50,1,,2,,,300,2,1,1,,,50,1,,2,,,300,3
5521,No,1999,5,6,23,0,53.1,33,6.2,6.2,6.3,5.9,,,,,IRAN,,IRAN:  SOUTHERN:  FARS PROVINCE,29.501,51.88,140,26,1,,,100,2,,2,800,3,,,26,1,,,100,2,,2,800,3,,
5522,No,1999,6,4,9,12,50,33,5.4,5.4,5,5.4,,,,5,AZERBAIJAN,,"AZERBAIJAN:  AGDAS, UCAR, AGALI",40.802,47.448,40,1,1,,,18,1,5,2,,,50,1,1,1,,,18,1,5,2,,,50,1
5523,No,1999,6,15,20,42,5.9,70,7,7,6.5,6.4,,,,,MEXICO,,"MEXICO:  PUEBLA, VERACRUZ, OAXACA, MORELOS, GUERRERO",18.386,-97.436,150,20,1,,,200,3,226.8,4,,,2000,4,20,1,,,200,3,226.8,4,,,2000,4
5524,No,1999,6,21,17,43,4.5,69,6.3,6.3,5.8,6,,,,,MEXICO,,MEXICO:  GUERRERO:  COAHUAYUTLA; MICHOACAN: CUITZEO,18.324,-101.539,150,,,,,,,,3,,,1300,4,,,,,,,,3,,,1300,4
5525,No,1999,7,11,14,14,16.5,10,6.7,6.7,6.6,6,,,,,GUATEMALA,,GUATEMALA:  IZABAL-PUERTO BARRIOS; HONDURAS:  W,15.782,-88.33,100,2,1,,,40,1,,2,7,1,7,1,2,1,,,40,1,,2,7,1,4,1
5526,No,1999,7,22,10,42,11.7,10,4.2,,4.2,5.2,,,,,BANGLADESH,,"BANGLADESH:  MAHESHKHALI ISLAND, COX'S BAZAAR",21.544,91.895,60,6,1,,,200,3,,3,700,3,,,6,1,,,200,3,,3,700,3,,
5527,Yes,1999,8,17,0,1,39.1,13,7.6,7.6,7.8,6.3,,,,10,TURKEY,,"TURKEY:  ISTANBUL, KOCAELI, SAKARYA",40.76,29.97,140,17118,4,,,50000,4,20000,4,,,73342,4,17118,4,,,50000,4,20000,4,,,73342,4
5530,No,1999,8,31,8,10,49.5,10,5.2,5.2,4.9,5.2,,,,,TURKEY,,TURKEY:  IZMIT,40.711,29.949,140,1,1,,,166,3,,1,,,,,1,1,,,166,3,,1,,,,
5531,No,1999,9,7,11,56,49.3,10,6,6,5.8,5.6,,,,9,GREECE,,GREECE:  ATHENS,38.119,23.605,130,143,3,,,1600,4,4200,4,53000,4,,,143,3,,,1600,4,4200,4,53000,4,,
5533,No,1999,9,13,11,55,28.1,13,5.8,5.8,5.8,5.8,,,,,TURKEY,,TURKEY:  ADAPAZARI-GOLUCK-KOCAELI,40.709,30.045,140,7,1,,,422,3,,1,,,,,7,1,,,422,3,,1,,,,
5535,No,1999,9,20,17,47,18.4,33,7.7,7.7,7.7,6.5,,,,10,TAIWAN,,"TAIWAN:  NANTOU, TAICHUNG, TAIZHONG",23.772,120.982,30,2297,4,,,8700,4,14000,4,8200,,82000,4,2297,4,,,8700,4,14000,4,,,82000,4
5536,No,1999,9,25,23,52,48.6,17,6.5,6.5,6.4,6.2,,,,,TAIWAN,,TAIWAN:  CENTRAL,23.738,121.158,30,,1,,,,,,1,,,,,,,,,,,,,,,,
5537,No,1999,9,30,16,31,15.6,61,7.5,7.5,7.5,6.5,,,,8,MEXICO,,MEXICO:  OAXACA,16.059,-96.931,150,35,1,,,215,3,164.8,4,,,2000,4,35,1,,,215,3,164.8,4,,,2000,4
5538,No,1999,10,16,9,46,44.1,,7.2,7.2,7.4,6.3,,,,7,USA,CA,"CALIFORNIA:  LUDLOW, LANDERS, TWENTYNINE PALMS",34.594,-116.271,150,,,,,4,1,,1,,,,,,,,,4,1,,1,,,,
5539,No,1999,10,22,2,18,58.5,33,5.9,5.9,5.6,5.7,,,,6,TAIWAN,,TAIWAN:  CHIA-I,23.445,120.506,30,1,1,,,254,3,0.786,1,15,1,,,1,1,,,254,3,0.786,1,15,1,,
5540,No,1999,10,31,13,27,42.4,62,4.4,,,4.4,,,,,PERU,,"PERU:  CHUSCHI, CANGALLo, HUANCAPI",-13.64,-74.43,160,,,,,30,1,,3,210,3,1100,4,,,,,30,1,,3,210,3,1100,4
5541,No,1999,11,1,13,25,16.5,10,5.3,5.3,5.3,5.1,5.5,,,,CHINA,,CHINA:  SHANXI:  NORTHEASTERN,39.899,113.983,30,,,,,4,1,44,4,6000,4,,,,,,,4,1,44,4,6000,4,,
5542,No,1999,11,11,14,41,25.6,22,5.7,5.7,5.5,5.5,,,,,TURKEY,,"TURKEY:  ADAPAZARI, KOCEALI, GOLCUK",40.744,30.266,140,2,1,,,171,3,,,,,,,2,1,,,171,3,,,,,,
5543,No,1999,11,12,16,57,19.5,10,7.2,7.2,7.5,6.3,,,,9,TURKEY,,"TURKEY:  BOLU-DUZCE-KAYNASLI, ADAPAZARI, ZONGULDAK",40.758,31.161,140,894,3,,,4948,4,1000,4,,,,,894,3,,,4948,4,1000,4,,,,
5544,No,1999,11,24,16,40,21.2,33,4.6,,4.6,4.8,5,,,,CHINA,,CHINA:  YUNNAN PROVINCE:  CHENGJIANG,24.589,102.872,30,1,1,,,5,1,,1,90,2,90,2,1,1,,,5,1,,1,90,2,,
5739,No,1999,11,26,4,27,24.7,33,5.3,5.3,4.8,5.2,,,,,IRAN,,IRAN:  GORGAN,36.92,54.9,140,,,,,,,,1,,,50,1,,,,,,,,1,,,50,1
5545,Yes,1999,11,26,13,21,15.5,33,7.5,7.5,7.3,6.4,,,,,VANUATU,,VANUATU ISLANDS:  PENTECOST,-16.423,168.214,170,5,1,,,100,2,,2,,,,,10,1,,,100,2,,3,,3,,
5546,No,1999,11,29,4,10,40.9,10,5,,,5,5.3,,,,CHINA,,CHINA:  NORTHEASTERN:  SANJIANFANG,40.459,122.889,30,,,,,,,,1,160,3,,,,,,,,,,1,160,3,,
5547,No,1999,12,3,17,6,54.7,19,5.7,5.7,5.5,5.3,,,,,TURKEY,,"TURKEY:  GORESKEN, ERZURUM PROVINCE",40.358,42.346,140,1,1,,,6,1,,2,,,340,3,,,,,6,1,,2,,,340,3
5548,No,1999,12,11,18,3,36.4,33,7.3,7.3,7.1,6.5,,,,7,PHILIPPINES,,"PHILIPPINES:  S LUZON:  MANILA, SANTA CRUZ",15.766,119.74,170,5,1,,,40,1,1.794,2,,,,,5,1,,,40,1,1.794,2,,,,
5549,No,1999,12,21,14,14,57.6,56,6.5,6.5,6.3,6.2,,,,,INDONESIA,,"INDONESIA:  PANDEGLANG, W JAWA, SE SUMATERA",-6.845,105.555,60,5,1,,,220,3,3.9,2,,,2800,4,5,1,,,220,3,3.9,2,,,2800,4
5550,No,1999,12,22,17,36,56.2,10,5.6,5.6,5.5,5.4,,,,7,ALGERIA,,ALGERIA:  NORTHERN:  AIN TEMOUCHENT,35.321,-1.281,15,24,1,,,175,3,60.929,4,,3,,3,24,1,,,175,3,60.929,4,3000,4,,
5551,No,2000,1,3,22,34,12.6,33,4.6,,,4.6,,,,,INDIA,,INDIA-BANGLADESH BORDER:  MAHESHKHALI,22.132,92.771,60,,,,,,,,1,,,,,,,,,,,,1,,,100,2
5552,No,2000,1,11,23,43,56.4,10,5.1,5.1,4.7,4.9,,,,,CHINA,,CHINA:  LIAONING PROVINCE,40.498,122.994,30,,,,,30,1,,3,3600,4,8800,4,,,,,30,1,,3,3600,4,8800,4
5553,No,2000,1,14,23,37,7.8,33,5.9,5.9,5.9,5.4,5.5,,,,CHINA,,CHINA:  YUNNAN PROVINCE:  YAOAN COUNTY,25.607,101.063,30,5,1,,,2528,4,73.5,4,41000,4,,,7,1,,,2528,4,73.5,4,41000,4,,
5554,No,2000,2,2,22,58,1.5,33,5.3,5.3,5.3,5.1,,,,,IRAN,,"IRAN:  BARDASKAN, KASHMAR",35.288,58.218,140,1,1,,,15,1,,2,100,2,100,2,1,1,,,15,1,,2,100,2,300,3
5555,No,2000,2,7,19,34,57,5,4.5,,,4.5,,,,,SOUTH AFRICA,,SOUTH AFRICA; SWAZILAND:  MBABANE-MANZINI,-26.288,30.888,10,,,,,1,1,,1,,,,,,,,,1,1,,1,,,,
5556,No,2000,3,28,11,0,22.5,127,7.6,7.6,7.6,6.8,,,,,JAPAN,,JAPAN:  VOLCANO ISLANDS,22.338,143.73,30,,,,,,,,,,,,,,,,,,,,,,,,
7301,Yes,2000,4,5,4,36,58.8,38,5.5,5.5,5.4,5.3,,,,,GREECE,,GREECE:  CRETE,34.22,25.69,130,,,,,,,,,,,,,,,,,,,,,,,,
5557,Yes,2000,5,4,4,21,16.2,26,7.6,7.6,7.5,6.7,,,,,INDONESIA,,"INDONESIA:  SULAWESI:  LUWUK, BANGGAI, PELENG,",-1.105,123.573,170,46,1,,,264,3,30,4,10000,4,,,46,1,,,264,3,30,4,10000,4,,
5558,No,2000,5,7,23,10,54.1,5,4.1,,4.1,4.5,,,,,TURKEY,,"TURKEY:  DOGANYOL, PUTURGE",38.164,38.777,140,,,,,,,,2,,,,,,,,,1,1,,2,,,200,3
5559,No,2000,5,17,3,25,48.7,10,5.4,5.4,5.3,5.4,,,,,TAIWAN,,TAIWAN:  TAI-CHUNG COUNTY,24.223,121.058,30,3,1,,,13,1,,1,,,,,3,1,,,13,1,,1,,,,
5560,No,2000,6,4,16,28,26.1,33,7.9,7.9,8,6.8,,,,6,INDONESIA,,"INDONESIA:  SUMATRA:  BENGKULU, ENGGANO",-4.721,102.087,60,103,3,,,2174,4,6,3,,,,,103,3,,,2174,4,6,3,,,,
5561,No,2000,6,6,2,41,49.8,10,6,6,6.1,5.5,,,,7,TURKEY,,"TURKEY:  CERKES, CUBUK, ORTA",40.693,32.992,140,2,1,,,80,2,,3,,,,,2,1,,,80,2,,3,,,4600,4
5562,No,2000,6,7,21,46,55.9,33,6.3,6.3,6.5,6.3,,,,,CHINA,,CHINA:  YUNNAN PROVINCE:  LIUKU; MYANMAR,26.856,97.238,30,,,,,,,,1,,2,,2,,,,,,,,1,,2,,
5563,No,2000,6,7,23,45,26.6,33,6.7,6.7,6.7,6.1,,,,,INDONESIA,,INDONESIA:  SOUTHERN SUMATERA:  LAHAT,-4.612,101.905,60,1,1,,,,,,2,,,600,3,1,1,,,,,,2,,,600,3
5564,No,2000,6,10,18,23,29.3,33,6.4,6.4,6.2,6.2,,,,,TAIWAN,,TAIWAN:  NAN-TOU,23.843,121.225,30,2,1,,,36,1,,1,,,,,2,1,,,36,1,,1,,,,
8209,No,2000,6,17,15,40,41.7,10,6.5,6.5,6.6,5.7,,,,,ICELAND,,"ICELAND:  VESTMANNAEYJAR, HELLA",63.966,-20.487,120,,,,,1,1,20,3,11,1,11,1,,,,,1,1,20,3,11,1,19,1
5565,Yes,2000,6,18,14,44,13.3,10,7.9,7.9,7.8,6.8,,,,,AUSTRALIA,,"AUSTRALIA:  S, COCOS ISLANDS",-13.802,97.453,60,,,,,,,,,,,,,,,,,,,,,,,,
5566,No,2000,6,21,0,51,46.8,10,6.5,6.5,6.6,6.1,,,,,ICELAND,,"ICELAND:  GRIMSNES, SELFOSS, EYRARBAKKI, STOKKSEYRI",63.98,-20.758,120,,,,,,,12,3,12,1,12,1,,,,,,,12,3,12,1,,
5568,Yes,2000,7,1,7,1,55.5,10,6.1,6.1,6.1,6,,,,,JAPAN,,JAPAN:  NEAR S COAST HONSHU:  KOZU-SHIMA,34.221,139.131,30,1,1,,,,3,,1,,,,,1,1,,,,3,,1,,,,
5569,No,2000,7,6,19,30,20.3,33,5.4,5.4,5.1,5,,,,,NICARAGUA,,NICARAGUA:  MASAYA,11.884,-85.988,100,7,1,,,42,1,,3,357,3,1130,4,7,1,,,42,1,,3,357,3,1130,4
5570,No,2000,7,12,1,10,42.6,33,5.4,5.4,5,5.2,,,,,INDONESIA,,"INDONESIA: JAWA:BANDUNG,CIBADAK,CIMANDIRI,KADUDAMPIT",-6.675,106.845,60,,,,,6,1,,2,,,225,3,,,,,6,1,,2,,,225,3
5571,Yes,2000,7,15,1,30,30.5,10,6.1,6.1,5.9,5.5,,,,,JAPAN,,JAPAN:  NEAR S COAST HONSHU:  NII-JIMA,34.319,139.26,30,,,,,10,1,,1,,,20,1,,,,,10,1,,1,,,20,1
5572,No,2000,7,16,3,21,45.5,33,6.4,6.4,6.3,6.1,,,,,PHILIPPINES,,"PHILIPPINES:  BASCO, MOUNT IRADA, BATAN ISLANDS",20.253,122.043,170,,,,,6,1,,2,,,,3,,,,,6,1,,2,,,,3
7803,Yes,2000,7,30,12,25,45.5,10,6.5,6.5,6.5,6,,,,,JAPAN,,JAPAN:  HONSHU:  S,33.901,139.376,30,,,,,1,1,,1,,,,,,,,,1,1,,1,,,,
5574,No,2000,8,4,21,13,2.7,10,6.8,6.8,7.1,6.3,,,,6,RUSSIA,,"RUSSIA:  SAKHALIN ISLAND, UGLEGORSK, MAKAROV",48.786,142.246,50,,,,,8,1,0.92,1,,,1390,4,,,,,8,1,0.92,1,,,1390,4
5575,No,2000,8,21,13,25,44.5,33,4.2,,4.2,4.9,,,,,CHINA,,CHINA:  YUNNAN PROVINCE:  WUDING,25.826,102.194,30,1,1,,,406,3,43,4,,,,,1,1,,,406,3,43,4,,,,
5576,No,2000,9,3,8,36,30,10,5,5,4.9,4.9,,,,7,USA,CA,CALIFORNIA:  NAPA,38.379,-122.413,150,,,,,41,1,50,4,,,,,,,,,41,1,50,4,,,,
5577,No,2000,10,2,2,25,31.3,34,6.5,6.5,6.7,6.1,,,,,TANZANIA,,"TANZANIA:  NKANSI, RUKWA",-7.977,30.709,10,,,,,6,1,,1,7,1,150,3,,,,,6,1,,1,7,1,150,3
5578,No,2000,10,6,4,30,19.1,10,6.7,6.7,6.8,5.8,,,,9,JAPAN,,"JAPAN:  HONSHU:  W:  OKAYAMA, TOTTORI",35.456,133.134,30,,,,,130,3,150,4,104,3,2230,4,,,,,130,3,150,4,104,3,2230,4
5579,No,2000,10,30,22,39,6.5,33,5.1,5.1,4.5,5.2,,,,,AFGHANISTAN,,AFGHANISTAN-TAJIKISTAN:  RAKHOR,37.542,69.582,40,,,,,,,,2,,,,,,,,,,,,2,,,800,3
5580,No,2000,11,8,6,59,58.8,17,6.5,6.5,6.4,6,,,,,PANAMA,,PANAMA-COLOMBIA:  JURADO,7.042,-77.829,100,,,,,2,1,,2,,,86,2,,,,,2,1,,2,,,86,2
5581,Yes,2000,11,16,4,54,55.9,17,8,8,8.2,6,,,,,PAPUA NEW GUINEA,,"PAPUA NEW GUINEA:  NEW IRELAND, DUKE OF YORK",-4.001,152.327,170,2,1,,,,,,2,,3,,,2,1,,,,,,2,,3,,
5582,No,2000,11,16,7,42,16.9,30,7.8,7.8,7.8,6.2,,,,,PAPUA NEW GUINEA,,"PAPUA NEW GUINEA:  NEW IRELAND, NEW BRITAIN",-5.233,153.102,170,,,,,,,,1,,,,,,,,,,,,1,,,,
5583,No,2000,11,17,21,1,56.4,33,7.8,7.8,8,6.2,,,,,PAPUA NEW GUINEA,,PAPUA NEW GUINEA:  NEW BRITAIN,-5.496,151.781,170,,,,,,,,,,,,,,,,,,,,,,,,
5584,No,2000,11,25,18,9,11.4,50,6.8,6.8,,5.8,,,,,AZERBAIJAN,,AZERBAIJAN:  BAKU,40.245,49.946,40,31,1,,,430,3,,1,,,,,31,1,,,430,3,,1,,,,
5585,No,2000,12,6,17,11,6.4,30,7,7,7.5,6.7,,,,,TURKMENISTAN,,TURKMENISTAN:  NEBITDAG-TURKMENBASHI,39.566,54.799,40,11,1,,,,2,,1,,,,,11,1,,,,2,,1,,,,
5586,No,2000,12,15,16,44,47.6,10,6,6,5.8,5.1,,,,7,TURKEY,,TURKEY:  AFYON-BOLVADIN,38.457,31.351,140,6,1,,,41,1,,1,,,,,6,1,,,41,1,,1,,,,2
8952,No,2001,1,1,6,57,4.1,33,7.5,7.5,7.2,6.4,,,,,PHILIPPINES,,PHILIPPINES:  MINDANAO,6.898,126.579,170,,,,,,,,,,,,,,,,,,,,,,,,
5587,Yes,2001,1,13,17,33,32.3,60,7.7,7.7,7.8,6.4,,,,8,EL SALVADOR,,EL SALVADOR:  DAMAGE & INJURIES IN EVERY DEPT.,13.049,-88.66,100,844,3,,,4723,4,753,4,108226,4,169632,4,844,3,,,4723,4,753,4,108226,4,169632,4
5589,No,2001,1,26,3,16,40.5,16,7.7,7.7,8,6.9,,,,10,INDIA,,"INDIA:  GUJARAT:  BHUJ, AHMADABAD, RAJOKOT; PAKISTAN",23.419,70.232,60,20005,4,,,166836,4,2623,4,339000,4,339000,4,20005,4,,,166836,4,2623,4,339000,4,,
5592,No,2001,2,13,14,22,5.8,10,6.6,6.6,6.5,5.5,,,,6,EL SALVADOR,,EL SALVADOR: SAN JUAN TEPEZONTES-SAN VICENTE-COJUTEP,13.671,-88.938,100,315,3,,,3399,4,348.5,4,41302,4,15706,4,315,3,,,3399,4,348.5,4,41302,4,15706,4
5593,No,2001,2,23,0,9,23.6,33,5.6,5.6,5.4,5.7,,,,,CHINA,,"CHINA:  SICHUAN PROVINCE:  KANGDING, YAJIANG",29.513,101.129,30,3,1,,,109,3,,3,60000,4,60000,4,3,1,,,109,3,,3,60000,4,,
5595,No,2001,2,28,18,54,32.8,52,6.8,6.8,6.6,6.5,,,,8,USA,WA,"WASHINGTON:  OLYMPIA, SEATTLE, TACOMA",47.149,-122.727,150,1,1,,,400,3,2000,4,,,,,1,1,,,400,3,2000,4,,,,
5596,No,2001,3,24,6,27,53.5,50,6.8,6.8,6.5,6.4,,,,9,JAPAN,,"JAPAN:  HIROSHIMA, OKAYAMA, HONSHU, KAGAMA",34.083,132.526,30,2,1,,,161,3,500,4,,,3700,4,2,1,,,161,3,500,4,,,3700,4
5597,No,2001,5,8,18,2,16.9,10,5.7,5.7,5.4,5.2,,,,,EL SALVADOR,,EL SALVADOR:  CONCHAGUA,13.605,-88.795,100,1,1,,,,,,2,84,2,70,2,1,1,,,,,,2,84,2,70,2
5598,No,2001,5,23,21,10,43.9,33,5.5,5.5,5.3,5.1,,,,,CHINA,,CHINA:  YUNNAN:  NINGLANG; SICHUAN:  YANYUAN,27.689,101.003,30,2,1,,,605,3,36,4,,,,,2,1,,,605,3,36,4,,,,
5599,No,2001,6,1,14,0,43.6,62,5,5,4.6,5,,,,,AFGHANISTAN,,AFGHANISTAN:  HINDU KUSH:  PARVAN,35.169,69.389,40,4,1,,,20,1,,1,,2,,2,4,1,,,20,1,,,,2,,
5601,Yes,2001,6,23,20,33,14.1,33,8.4,8.4,8.2,6.7,,,,8,PERU,,"PERU:  AREQUIPA, MOQUEGUA, TACNA, AYACUCHO",-16.265,-73.641,160,77,2,68,2,2713,4,,4,22399,4,,,103,3,138,3,2713,4,200,4,25399,4,,
5602,No,2001,6,25,13,28,46.5,5,5.5,5.5,4.9,5.2,,,,,TURKEY,,TURKEY:  OSMANIYE,37.238,36.206,140,,,,,130,3,,1,,,,,,,,,130,3,,1,,,66,2
5603,No,2001,7,5,13,53,48.3,62,6.6,6.6,,6.2,,,,,PERU,,"PERU:  CARAVELI, CHALA, ARICA, IQUIQUE, PARINACOTA",-16.086,-73.987,160,,,,,,,,2,300,3,,,,,,,,,,2,300,3,,
5604,No,2001,7,7,9,38,43.5,33,7.6,7.6,7.3,6.6,,,,,PERU,,"PERU:  AREQUIPA, ARICA",-17.543,-72.077,160,1,1,,,30,1,,2,200,3,,,1,1,,,30,1,,2,200,3,,
5605,No,2001,7,14,18,36,8.3,33,4.3,,4.3,4.6,4.7,,,,CHINA,,CHINA:  YUNNAN PROVINCE:  JIANGCHUAN,24.455,102.66,30,,,,,2,1,,1,150,3,150,3,,,,,2,1,,1,150,3,,
5606,No,2001,7,26,0,21,36.9,10,6.5,6.5,6.6,6,,,,,GREECE,,GREECE:  SKYROS,39.059,24.244,130,,,,,,,,1,,,100,2,,,,,,,,1,,,100,2
5607,No,2001,8,9,2,6,59.9,33,5.8,5.8,5.5,5.4,,,,,PERU,,PERU:  ANTABAMA,-14.258,-72.683,160,4,1,,,15,1,,2,,3,,,4,1,,,15,1,,2,,3,,
5608,No,2001,9,9,23,59,18,5,4.2,,,4.2,,,,6,USA,CA,CALIFORNIA:  LOS ANGELES,34.059,-118.387,150,,,,,,,,1,,,,,,,,,,,,1,,,,
10203,Yes,2001,10,12,5,2,34,20,6.1,6.1,5.8,5.6,,,,,CANADA,BC,CANADA:  QUEEN CHARLOTTE ISLANDS,52.63,-132.2,150,,,,,,,,,,,,,,,,,,,,,,,,
5609,No,2001,10,12,15,2,16.8,37,7,7,7.3,6.7,,,,8,USA TERRITORY,GU,GUAM,12.686,144.98,170,,,,,1,1,,2,,3,,,,,,,1,1,,2,,3,,
5610,No,2001,10,19,3,28,44.4,33,7.5,7.5,7.3,6.3,,,,,INDONESIA,,INDONESIA:  BANDA SEA,-4.102,123.907,170,,,,,,,,,,,,,,,,,,,,,,,,
5611,No,2001,10,27,5,35,39.7,10,5.6,5.6,5.5,5.3,,,,,CHINA,,CHINA:  YUNNAN PROVINCE:  YONGSHENG,26.316,100.648,30,1,1,,,220,3,,2,3400,4,3400,4,1,1,,,220,3,,2,3400,4,,
5612,No,2001,11,14,9,26,10,10,7.8,7.8,8,6.1,,,,,CHINA,,CHINA:  QINGHAI PROVINCE:  XIDATAN,35.946,90.541,40,,,,,,,,1,,2,,2,,,,,,,,1,,2,,
6613,Yes,2001,12,18,4,2,58.2,14,6.8,6.8,7.3,6.3,,,,,TAIWAN,,TAIWAN,23.954,122.734,30,,,,,,,,,,,,,,,,,,,,,,,,
5613,No,2001,12,19,7,54,7.9,10,4.5,,,4.5,,,,6,BANGLADESH,,BANGLADESH:  DHAKA,23.632,90.376,60,,,,,100,2,,1,,,,2,,,,,100,2,,1,,,,2
5614,Yes,2002,1,2,17,22,48.7,21,7.2,7.2,7.5,6.3,,,,,VANUATU,,"VANUATU ISLANDS:  EFATE, PORT VILA",-17.6,167.856,170,,,,,,2,,1,,,,2,,,,,,2,,1,,,,2
5615,No,2002,1,9,6,45,57.5,33,5.3,5.3,5.2,5.2,,,,,TAJIKISTAN,,TAJIKISTAN:  ROGHUN,38.673,69.902,40,3,1,,,50,1,,2,,,209,3,3,1,,,50,1,,2,,,209,3
5616,No,2002,1,10,11,14,56.9,11,6.7,6.7,6.6,6,,,,,PAPUA NEW GUINEA,,PAPUA NEW GUINEA:  AITAPE,-3.212,142.427,170,1,1,,,,,,2,200,3,,,1,1,,,,,,2,200,3,,
5617,No,2002,1,14,15,36,26.4,33,5.6,5.6,5.2,5.5,,,,,CHILE,,"CHILE: NORTHERN: CUYA, HUARA, IQUIQUE, POZO ALMONTE",-19.384,-69.231,160,,,,,,,,1,,,,1,,,,,,,,1,,,,1
5618,No,2002,1,17,20,1,29.2,15,4.7,,,4.7,,,,,RWANDA,,RWANDA:  GISENYI,-1.684,29.077,10,,1,,,,,,2,307,,,,1001,2,,,400,3,,3,307,3,,
5619,No,2002,1,30,8,42,3.4,109,5.9,5.9,,5.6,,,,,MEXICO,,"MEXICO:  VERACRUZ:  SAN ANDRES TUXTLA, TUXTEPEC",18.194,-95.908,150,,,,,,,,1,,,,2,,,,,,,,1,,,,2
5620,No,2002,2,3,7,11,28.4,5,6.5,6.5,6.4,5.7,,,,,TURKEY,,TURKEY:  AFYON,38.573,31.271,140,44,1,,,318,3,,2,,,,,44,1,,,318,3,,2,,,622,3
5621,No,2002,2,3,20,59,27.6,44,4.9,,,4.9,,,,,TAJIKISTAN,,TAJIKISTAN:  ROGHUN,38.773,69.924,40,,,,,,2,,1,,,,2,,,,,,2,,1,,,,2
5622,No,2002,2,17,13,3,52.7,33,5.4,5.4,5,5.6,,,,,IRAN,,IRAN:  BAGHAN,28.093,51.755,140,1,1,,,30,1,,2,,,,,1,1,,,30,1,,2,,,,3
5623,No,2002,2,22,19,32,41.7,7,5.5,5.5,5.5,5.4,,,,,MEXICO,,"MEXICO:  MEXICALI, BAJA CALIFORNIA",32.319,-115.322,150,,,,,,,,1,,,,,,,,,,,,1,,,,
5624,No,2002,3,3,12,8,19.7,226,7.4,7.4,,6.6,,,,,AFGHANISTAN,,"AFGHANISTAN:  HINDU KUSH:  SAMANGHAN, KABUL, RUSTAQ",36.502,70.482,40,166,3,,,,2,,3,300,3,300,3,166,3,,,,2,,3,300,3,400,3
5625,Yes,2002,3,5,21,16,9.1,31,7.5,7.5,7.2,6.3,,,,,PHILIPPINES,,PHILIPPINES:  MINDANAO,6.033,124.249,170,15,1,,,100,2,1.714,2,,,800,3,15,1,,,100,2,1.714,2,,,800,3
5626,No,2002,3,25,14,56,33.8,8,6.1,6.1,6.2,5.9,,,,,AFGHANISTAN,,"AFGHANISTAN:  HINDU KUSH:  BAGHLAN, NAHRIN",36.062,69.315,40,1000,3,,,200,3,,4,1500,4,1500,4,1000,3,,,200,3,,4,1500,4,,
6821,Yes,2002,3,26,3,45,48.7,33,6.4,6.4,6.6,5.8,,,,,JAPAN,,JAPAN:  RYUKYU ISLANDS,23.346,124.09,30,,,,,,,,,,,,,,,,,,,,,,,,
5627,Yes,2002,3,31,6,52,50.4,33,7.1,7.1,7.4,6.4,,,,,TAIWAN,,TAIWAN:  TAIPEI,24.279,122.179,30,5,1,,,200,3,,2,100,2,,,5,1,,,200,3,,2,100,2,,
5628,No,2002,4,1,19,59,32.4,71,6.4,6.4,,6.1,,,,,CHILE,,"CHILE:  CENTRAL:  COQUIMBO, LA SERENA, OVALLE",-29.67,-71.384,160,,,,,,,,1,,,,,,,,,,,,1,,,,
5629,No,2002,4,12,4,0,23.7,10,5.9,5.9,5.9,5.8,,,,,TAJIKISTAN,,TAJIKISTAN; AFGHANISTAN: DO ABI-NAHRIN,39.959,69.417,40,50,1,,,150,3,,2,160,3,160,3,50,1,,,150,3,,,160,3,250,3
5630,No,2002,4,18,16,8,36.7,62,6.6,6.6,,6.2,,,,,CHILE,,"CHILE:  COPIAPO, TALTAL",-27.535,-70.586,160,,,,,19,1,,2,34,1,575,3,,,,,19,1,,2,34,1,575,3
5631,No,2002,4,20,10,50,47.5,11,5.2,5.2,4.2,5.2,,,,7,USA,NY,"NEW YORK:  CLINTON, ESSEX, AU SABLE FORKS",44.513,-73.699,150,,,,,,,,1,,,,,,,,,,,,1,,,,
5632,No,2002,4,24,10,51,50.9,10,5.7,5.7,5.6,5.6,,,,,SERBIA,,BALKANS NW:  KOSOVO; MACEDONIA:  N,42.436,21.466,130,1,1,,,60,2,,1,,,,,1,1,,,60,2,,1,,,,
5633,No,2002,4,24,19,48,7.1,33,5.4,5.4,5.2,5.2,,,,,IRAN,,IRAN:  WESTERN:  KERMANSHAH,34.642,47.4,140,2,1,,,56,2,,4,,4,,4,2,1,,,56,2,,4,,4,,
5634,No,2002,4,25,17,41,21.5,10,4.3,,4.3,4.8,,,,,GEORGIA,,GEORGIA:  TBILISI,41.765,44.96,40,5,1,,,52,2,,3,,,2400,4,5,1,,,52,2,,3,,,2400,4
5635,No,2002,4,26,16,6,7,86,7.1,7.1,,6.5,,,,7,USA TERRITORY,GU,GUAM,13.088,144.619,170,,,,,5,1,,1,,,,,,,,,5,1,,1,,,,
5636,No,2002,5,18,15,15,8.8,10,5.5,5.5,5.5,5.2,,,,,TANZANIA,,TANZANIA:  BUNDA,-2.907,33.733,10,2,1,,,,,,2,690,3,700,3,2,1,,,,,,2,690,3,700,3
5637,No,2002,5,28,4,4,22.5,22,6,6,5.7,6,,,,,ARGENTINA,,"ARGENTINA:  AMINGA, ANILLACO, AGUA BLANCA, CHUQUIS",-28.937,-66.797,160,,,,,27,1,,2,40,1,40,1,,,,,27,1,,2,40,1,,3
5638,No,2002,6,20,5,40,43.3,40,4.5,,,4.5,,,,,BANGLADESH,,"BANGLADESH:  RANGPUR, THAKURGAON, ALMANAGAR",25.842,88.932,60,,,,,55,2,,1,,,,2,,,,,55,2,,1,,,,2
5639,No,2002,6,22,2,58,21.3,10,6.5,6.5,6.4,6.2,,,,8,IRAN,,IRAN:  AB GARM-ABHAR-AVAJ-SHIRIN SU,35.626,49.047,140,261,3,,,1300,4,300,4,,4,,4,261,3,,,1300,4,300,4,4,4,,
5573,No,2002,7,22,5,45,3,17,4.8,,,4.8,,,,,GERMANY,,"GERMANY:  AACHEN, COLOGNE, SPANGDAHLEM",50.889,6.103,120,,,,,,,,1,,,,,,,,,,,,1,,,,
5641,No,2002,7,31,0,16,44.6,10,6.5,6.5,6.4,6,,,,7,PANAMA,,"PANAMA:  BARU, ALANJE, DAVID; COSTA RICA:  LAUREL",7.929,-82.793,100,,,,,11,1,,2,,2,,3,,,,,11,1,,2,,2,,3
5642,No,2002,8,8,11,42,5,33,5.3,5.3,4.7,5.4,,,,,CHINA,,CHINA:  SICHUAN PROVINCE:  RULONG,30.916,99.927,30,,,,,,,,1,8,1,8,1,,,,,,,,1,8,1,,
5643,No,2002,8,14,13,57,52.1,30,6.5,6.5,6.4,6.1,,,,,USA TERRITORY,MP,NORTHERN MARIANA ISLANDS:  SAIPAN,14.101,146.199,170,,,,,,,,1,,,,1,,,,,,,,1,,,,1
5644,No,2002,8,15,5,30,26.2,10,6.2,6.2,5.8,5.7,,,,,INDONESIA,,INDONESIA:   SULAWESI:  TOJO,-1.196,121.333,170,48,1,,,,,,2,,,200,3,48,1,,,,,,2,,,200,3
8953,No,2002,8,19,11,1,1.1,580,7.7,7.7,,6.7,,,,,FIJI,,FIJI ISLANDS,-21.696,-179.513,170,,,,,,,,,,,,,,,,,,,,,,,,
8954,No,2002,8,19,11,8,24.3,675,7.7,7.7,,7,,,,,FIJI,,FIJI ISLANDS,-23.884,178.495,170,,,,,,,,,,,,,,,,,,,,,,,,
5645,No,2002,8,24,20,1,18.3,10,4.4,,,4.4,,,,,EGYPT,,EGYPT:  CAIRO,30.2,31.41,15,,,,,,,,1,,,44,1,,,,,,,,1,,,44,1
5646,No,2002,9,2,1,0,3.2,10,5.2,5.2,,5.1,,,,,IRAN,,"IRAN: KAK, RAZAN, SIZAN",35.701,48.838,140,,,,,,,,1,,,,,,,,,,,,1,,,,1
5647,No,2002,9,5,11,3,5.8,32,5.5,5.5,5.2,5.3,,,,,KYRGYZSTAN,,KYRGYZSTAN,39.77,72.007,40,,,,,,,,1,,,,,,,,,,,,1,,,,
5648,No,2002,9,6,1,21,28.6,5,6,6,5.5,5.8,,,,,ITALY,,ITALY:  SICILY:  PALERMO,38.381,13.701,130,2,1,,,20,1,500,4,,,,2,2,1,,,20,1,500,4,,,,2
5649,Yes,2002,9,8,18,44,25.5,13,7.6,7.6,7.8,6.5,,,,,PAPUA NEW GUINEA,,"PAPUA NEW GUINEA:  KAIRIRU IS, MUSCHU IS, WEWAK",-3.26,142.94,170,4,1,,,70,2,,3,,1,873,3,4,1,,,70,2,,3,,1,873,3
5650,Yes,2002,9,13,22,28,29.4,21,6.5,6.5,6.7,6.2,,,,,INDIA,,"INDIA:  ANDAMAN ISLANDS:  RONGAT, DIGLIPUR,ARIEL BAY",13.036,93.068,60,2,1,,,,,,1,40,1,,1,2,1,,,,,,2,40,1,,1
5651,No,2002,9,20,15,43,35.4,10,6.4,6.4,6.4,5.9,,,,,INDONESIA,,INDONESIA:  NEW GUINEA:  IRIAN JAYA:  RANSIKI,-1.68,134.234,170,,,,,,,,1,,,31,1,,,,,,,,1,,,31,1
5652,No,2002,9,22,23,53,14.6,9,4.8,,,4.8,5,,,6,UK,,"UNITED KINGDOM:  MANSFIELD, DUDLEY",52.52,-2.15,120,,,,,1,1,,1,,,,,,,,,1,1,,1,,,,
5653,No,2002,9,25,18,14,48.5,6,5.3,5.3,4.7,5.2,,,,,MEXICO,,MEXICO:  ACAPULCO,16.87,-100.113,150,,,,,2,1,,1,,,,2,,,,,2,1,,1,,,,2
5654,No,2002,9,25,22,28,11.9,10,5.6,5.6,5.1,5.5,,,,,IRAN,,IRAN:  MASJED-E SOLEYMAN,31.995,49.329,140,,,,,5,1,,2,,,,,,,,,5,1,,2,,,,3
5655,No,2002,9,30,6,44,48,10,4.2,,,4.2,4.5,,,,FRANCE,,"FRANCE:  HENNEBONT, LANGUIDIC, LORIENT, TREMOREL",47.832,-3.207,120,,,,,,,,1,,,,1,,,,,,,,1,,,,1
5656,Yes,2002,10,10,10,50,20.5,10,7.6,7.6,7.7,6.5,,,,,INDONESIA,,"INDONESIA: NEW GUINEA: MANOKWARI, ORANSBARI, RANSIKI",-1.757,134.297,170,8,1,,,632,3,,3,1000,3,900,3,8,1,,,632,3,,3,1000,3,900,3
5657,No,2002,10,23,11,27,19.4,4,6.7,6.7,6.7,6,,,,8,USA,AK,"ALASKA:  CANTWELL, DENALI NATL PARK",63.514,-147.912,150,,,,,,,,2,,,,,,,,,,,,2,,,,
5658,No,2002,10,24,6,8,37.9,11,6.2,6.2,6.3,5.9,,,,,CONGO,,"CONGO: GOMA, LWIRO, BUKAVU; RWANDA:  MUGERA, KIGALI",-1.884,29.004,10,2,1,,,,,,1,,2,,,2,1,,,,,,1,,2,,
5659,No,2002,10,29,10,2,21.5,10,4.3,,,4.3,4.5,,,8,ITALY,,ITALY:  SICILY:  SANTA VENERINA,37.67,15.267,130,,,,,9,1,,1,,,,2,,,,,9,1,,1,,,,2
5660,No,2002,10,31,10,32,58.7,10,5.7,5.7,5.6,5.3,,,,,ITALY,,"ITALY:  SAN GUILIANO DI PUGLIA, CAMPOBASSO",41.789,14.872,130,29,1,,,135,3,796,4,,,,4,29,1,,,135,3,796,4,,,,4
5661,No,2002,11,1,22,9,29.2,33,5.4,5.4,5.3,5.3,,,,,PAKISTAN,,PAKISTAN:  GILGIT,35.517,74.654,60,11,1,,,40,1,,3,,3,,3,11,1,,,40,1,,3,,,1000,4
5662,No,2002,11,2,1,26,10.7,30,7.3,7.3,7.6,6.2,,,,,INDONESIA,,INDONESIA:  SUMATERA:  SIMEULUE,2.824,96.085,60,3,1,,,65,2,,3,,,994,3,3,1,,,65,2,,3,,,994,3
5663,No,2002,11,3,22,12,41,5,7.9,7.9,8.5,7,,,,9,USA,AK,"ALASKA:  SLANA, MENTASTA LAKE, FAIRBANKS",63.517,-147.444,150,,,,,1,1,56,4,,,,,,,,,1,1,56,4,,,,
5664,No,2002,11,20,21,32,30.8,33,6.3,6.3,6.5,5.7,,,,,PAKISTAN,,"PAKISTAN:  DASHKIN, DOIAN, MUSHKIN",35.414,74.515,60,19,1,,,40,1,,3,100,2,100,2,19,1,,,40,1,,3,100,2,1256,4
5665,No,2002,11,27,16,43,17.5,33,5.9,5.9,5.8,5.6,,,,,VANUATU,,VANUATU ISLANDS: MERE LAVA ISLAND,-14.49,167.827,170,,,,,3,1,,2,,,,,,,,,3,1,,2,,,100,2
5666,No,2002,12,2,4,58,55.1,10,5.7,5.7,5.4,5.2,,,,,GREECE,,"GREECE:  MEGALOPOLIS, VARTHOLOMION",37.747,21.087,130,,,,,17,1,,2,8,1,100,2,,,,,17,1,,2,8,1,100,2
5667,No,2002,12,14,13,27,29.1,22,5.5,5.5,5.3,5.6,,,,,CHINA,,CHINA:  GANSU PROVINCE:  YUMNE,39.736,97.443,30,2,1,,,,,,3,13380,4,,,2,1,,,,,,3,13380,4,,
5668,No,2002,12,24,17,3,2.9,33,5.2,5.2,4.4,5.1,,,,,IRAN,,IRAN:  KERMANSHAH,34.594,47.454,140,,,,,15,1,,3,3000,4,3000,4,,,,,15,1,,3,3000,4,,
5669,No,2002,12,25,12,57,3.2,10,5.7,5.7,5.6,5.5,,,,,CHINA,,CHINA:  XINJIANG:  WUQIA,39.57,75.254,40,,,,,,,,1,,2,,,,,,,,,,1,,2,,
5670,No,2002,12,25,19,13,42.7,91,5.5,5.5,,5.3,,,,,AFGHANISTAN,,AFGHANISTAN:  JALALABAD,35.704,69.868,40,,,,,,,,1,,,,,,,,,,,,1,,,,1
5671,No,2003,1,11,17,45,30.6,33,5.2,5.2,5,5.2,,,,,IRAN,,"IRAN:  KAZERUN, NURABAD",29.59,51.474,140,,,,,,2,,3,650,3,650,3,,,,,,2,,3,650,3,1350,4
5672,Yes,2003,1,20,8,43,6,33,7.3,7.3,7.8,6.7,,,,,SOLOMON ISLANDS,,"SOLOMON ISLANDS:  HONIARA, SAN CRISTOBAL",-10.491,160.77,170,,,,,,,,,,,,,,,,,,,,,,,,
5673,Yes,2003,1,22,2,6,34.6,24,7.5,7.5,7.6,6.5,,,,8,MEXICO,,"MEXICO:  VILLA DE ALVAREZ, COLIMA, TECOMAN, JALISCO",18.77,-104.104,150,29,1,,,300,3,,3,2005,4,6615,4,29,1,,,300,3,,3,2005,4,6615,4
5674,No,2003,1,23,0,8,22.8,33,5.5,5.5,5.1,5.3,,,,6,INDONESIA,,INDONESIA:  SUMBAWA ISLAND:  DOMPU,-8.807,118.524,60,,,,,2,1,,2,,,500,3,,,,,2,1,,2,,,500,3
5675,No,2003,1,26,19,57,3.2,7,4.7,,,4.7,4.6,,,7,ITALY,,"ITALY:  SPINELLO, SANTA SOFIA, BAGNO DI ROMAGNA",43.883,11.96,130,,,,,,,,1,,,,1,,,,,,,,1,,,,1
5676,No,2003,1,27,5,26,23,10,6.1,6.1,6,5.6,,,,,TURKEY,,"TURKEY:  SAGLAMTAS, PULUMUR",39.5,39.878,140,1,1,,,,2,,1,,,,,1,1,,,,2,,1,,,,2
5685,No,2003,2,13,17,34,20.9,24,5.3,5.3,5.2,5.2,,,,,CHINA,,CHINA:  N. XINJIANG:  URUMQI,43.897,85.923,40,,,,,,,,1,,,,,,,,,,,,1,,,,
5700,No,2003,2,15,5,47,58.9,10,5.8,5.8,5.6,5.4,,,,6,PHILIPPINES,,PHILIPPINES: LUZON:  DIMASALANG,12.171,123.921,170,,,,,,,,1,,,,,,,,,,,,1,,,,
5701,No,2003,2,15,11,1,59.8,10,6.3,6.3,6.2,5.8,,,,6,PHILIPPINES,,"PHILIPPINES: MASBATE, DIMASALANG",12.168,124.079,170,,,,,,,,1,,,,2,,,,,,,,1,,,,2
5680,No,2003,2,22,12,19,10.5,1,5.2,5.2,4.8,4.9,,,,6,USA,CA,CALIFORNIA:  BIG BEAR CITY,34.31,-116.848,150,,,,,,,,1,,,,,,,,,,,,1,,,,
5681,No,2003,2,22,20,41,3.4,10,5,5,,5,5.7,,,,FRANCE,,"FRANCE:  BACCARAT, COLMAR, THANN; GERMANY:  EDIGEN",48.342,6.57,120,,,,,,,,1,,,,,,,,,,,,1,,,,
5682,No,2003,2,24,2,3,41.4,11,6.3,6.3,6.3,5.8,,,,,CHINA,,CHINA:  S. XINJIANG:  BACHU,39.61,77.23,40,261,3,,,4000,4,,4,71000,4,,,261,3,,,4000,4,,4,71000,4,,
5683,No,2003,2,25,3,52,41,10,5.4,5.4,5.3,5.1,,,,,CHINA,,CHINA:  S. XINJIANG:  BACHU,39.483,77.393,40,5,1,,,,,,1,,,,,5,1,,,,,,1,,,,
5684,No,2003,3,21,11,38,20,33,4.6,,,4.6,,,,,INDONESIA,,"INDONESIA:  JAVA:  CARACAS, CILIMUS, SAMPORA",-6.983,108.468,60,,,,,,,,2,,,,,,,,,,,,2,,,800,3
5686,No,2003,3,22,13,36,16,6,4.7,,,,4.7,,,,GERMANY,,GERMANY:  ALBSTADT,48.21,9,120,,,,,,,,1,,,,,,,,,,,,1,,,,
5702,No,2003,3,25,2,53,25,33,6.5,6.5,6.1,6.2,,,,,INDONESIA,,INDONESIA:  FLORES:  REO,-8.294,120.743,60,4,1,,,20,1,,1,,,,2,4,1,,,20,1,,1,,,,2
5689,No,2003,3,25,18,51,26.3,47,5.5,5.5,4.8,4.8,,,,,BHUTAN,,BHUTAN:  PHUENTSHOLING,27.264,89.331,60,,,,,,,,1,,,,,,,,,,,,1,,,,1
5690,No,2003,4,10,0,40,15.1,10,5.7,5.7,5.6,5.6,,,,,TURKEY,,"TURKEY:  IZMIR, SEFERIHISAR",38.221,26.958,140,,,,,90,2,,2,,2,,2,,,,,90,2,,2,,2,,2
5691,No,2003,4,17,0,48,38.5,14,6.4,6.4,6.3,6.2,,,,,CHINA,,CHINA:  QINGHAI PROVINCE:  DELINGHA,37.529,96.476,30,,,,,,,,1,45,1,45,1,,,,,,,,1,45,1,,
5703,No,2003,4,29,8,59,39,20,4.6,4.6,,4.4,,,,6,USA,AL,"ALABAMA:  FORT PAYNE,GAYLESVILLE,VALLEY HEAD",34.494,-85.629,150,,,,,,,,1,,,,,,,,,,,,1,,,,
5692,No,2003,5,1,0,27,4.7,10,6.4,6.4,6.4,5.7,,,,,TURKEY,,TURKEY:  BINGOL,39.007,40.464,140,177,3,,,521,3,,3,718,3,718,3,177,3,,,521,3,,3,718,3,2593,4
5693,No,2003,5,4,15,44,35.5,10,5.8,5.8,5.6,5,,,,,CHINA,,CHINA:  S. XINJIANG:  YOPURGA,39.43,77.219,40,1,1,,,3,1,,3,1600,4,,,1,1,,,3,1,,3,1600,4,,
5694,Yes,2003,5,21,18,44,20.1,12,6.8,6.8,6.9,6.5,,,,10,ALGERIA,,"ALGERIA:  ALGIERS, BOUMERDES, REGHIA, THENIA",36.964,3.634,15,2266,4,,,10261,4,5000,4,43000,4,43000,4,2266,4,,,10261,4,5000,4,43000,4,,
5695,No,2003,5,26,9,24,33.4,68,7,7,,6.7,,,,,JAPAN,,"JAPAN:  HONSHU:  IWATE, MIYAGI, YAMAGATA, AKITA",38.849,141.568,30,,,,,143,3,233,4,,,720,3,,,,,143,3,233,4,,,720,3
5696,No,2003,5,26,19,23,27.9,31,7,7,7.1,6.5,,,,,INDONESIA,,"INDONESIA:  MOROTAI, BEREBERE, DARUBA",2.354,128.855,170,1,1,,,7,1,,1,28,1,20,1,1,1,,,7,1,,1,28,1,20,1
5697,Yes,2003,5,27,17,11,28.8,8,5.7,5.7,5.5,5.5,,,,,ALGERIA,,"ALGERIA:  ALGIERS, BOUMERDES, REGHAIA",36.939,3.578,15,9,1,,,200,3,,2,,3,,,9,1,,,200,3,,2,,3,,
5698,No,2003,6,6,12,29,34,3,4,4,,3.9,,,,6,USA,KY,KENTUCKY:  BARDWELL,36.87,-88.98,150,,,,,,,,1,,,,,,,,,,,,1,,,,
5699,No,2003,6,9,7,6,39.3,18,5.2,5.2,4.9,4.9,,,,,GREECE,,"GREECE:  GONNOI, LARISA",39.893,22.309,130,,,,,,,,1,,,50,1,,,,,,,,1,,,50,1
5688,No,2003,6,20,13,30,41.6,33,6.8,6.8,6.8,6.4,,,,6,CHILE,,"CHILE:  OVALLE, COQUIMBO; ARGENTINA:  SAN JUAN",-30.608,-71.637,160,,,,,1,1,,1,,,,2,,,,,1,1,,1,,,,2
5704,No,2003,7,3,14,59,32.2,41,5.2,5.2,4.9,5.2,,,,,IRAN,,"IRAN:  NORTHEASTERN: YAKHAK, BASHIRABAD, BUTEHGAZ",35.476,60.784,140,,,,,,,,1,,,,,,,,,,,,1,,,90,2
5705,No,2003,7,10,17,6,37.6,10,5.8,5.8,5.5,5.9,,,,,IRAN,,IRAN:  SOUTHERN: GAJJIABAD,28.355,54.169,140,1,1,,,25,1,,3,3500,4,3500,4,1,1,,,25,1,,3,3500,4,,
5706,No,2003,7,15,20,27,50.5,10,7.6,7.6,7.6,6.1,,,,,INDIAN OCEAN,,INDIAN OCEAN:  FELT IN MALDIVES,-2.598,68.382,60,,,,,,,,,,,,,,,,,,,,,,,,
5707,No,2003,7,21,15,16,31.9,10,5.9,5.9,6,5.4,,,,,CHINA,,CHINA:  YUNNAN PROVINCE,25.975,101.29,30,16,1,,,584,3,75,4,264878,4,264878,4,16,1,,,584,3,75,4,264878,4,,
5708,No,2003,7,25,15,13,7.7,10,5.5,5.5,4.9,5.6,,,,,JAPAN,,"JAPAN:  HONSHU:  MIYAGI, IWATE",38.432,141.003,30,,,,,569,3,411,4,,,1025,4,,,,,569,3,411,4,,,1025,4
5709,No,2003,7,26,1,0,57.6,10,4.5,,,4.5,5,,,,TURKEY,,TURKEY:  WESTERN:  BULDAN,38.111,28.887,140,,,,,,2,,1,,,,,,,,,,2,,1,,,48,1
5710,No,2003,7,26,8,36,49.1,10,5.4,5.4,5.2,5,,,,,TURKEY,,TURKEY:  WESTERN:  BULDAN,38.019,28.927,140,,,,,10,1,,1,1,1,1,1,,,,,10,1,,1,1,1,,1
5711,No,2003,7,26,23,18,17.9,10,5.7,5.7,5.5,5.5,,,,,BANGLADESH,,BANGLADESH:  RANGAMATI,22.854,92.306,60,2,1,,,25,1,,2,500,3,,,2,1,,,25,1,,2,500,3,,
5712,No,2003,8,4,4,37,20.1,10,7.6,7.6,7.5,6.2,,,,,ANTARCTICA,,SCOTIA SEA:  SOUTH ORKNEY ISLANDS: LAURIE IS,-60.532,-43.411,20,,,,,,,,1,,,,,,,,,,,,1,,,,
5713,No,2003,8,11,0,19,9.2,10,6,6,5.6,5.7,,,,,INDONESIA,,INDONESIA:  HALMAHERA:  WASILE,1.142,128.152,170,,,,,,,,2,,,200,3,,,,,,,,2,,,200,3
5714,No,2003,8,13,8,29,27.2,54,5.4,5.4,,5,,,,,PANAMA,,"PANAMA:  COLON, PANAMA CITY",9.355,-79.941,100,,,,,,,,1,,,,,,,,,,,,1,,,,
5715,No,2003,8,14,5,14,54.7,10,6.3,6.3,6.2,5.6,,,,,GREECE,,"GREECE:  LEFKADA, PREVEZA",39.16,20.605,130,,,,,50,1,,2,,,,2,,,,,50,1,,2,,,,2
5716,No,2003,8,16,10,58,42.7,24,5.4,5.4,5.1,5.5,,,,,CHINA,,"CHINA:  NEI MONGOL:  LINDONG, TIANSHAN",43.77,119.643,30,4,1,,,1000,3,,3,7900,3,,,4,1,,,1000,3,,3,7900,4,,
5717,No,2003,8,18,9,3,3.5,33,5.5,5.5,5.3,5.6,,,,,CHINA,,"CHINA:  TIBET (XIZANG PROVINCE): BOMI,MEDOG,NYINGCHI",29.573,95.605,40,,,,,,,,1,,,,,,,,,,,,1,,,,
5719,Yes,2003,8,21,12,12,49.7,28,7.2,7.2,7.5,6.6,7.1,,,,NEW ZEALAND,,"NEW ZEALAND:  DUNEDIN,INVERCARGILL,TE ANAU,FIORDLAND",-45.104,167.144,170,,,,,,,,1,,,,,,,,,,,,1,,,,
5720,No,2003,9,14,21,42,51.8,10,5.3,5.3,5.2,5.1,,,,7,ITALY,,"ITALY:  LOIANO, MONGHIDORO, MONZUNO",44.329,11.45,130,,,,,,2,,1,,,10,1,,,,,,2,,1,,,10,1
5721,No,2003,9,20,3,54,50.7,52,5.7,5.7,,5.4,,,,,JAPAN,,JAPAN:  HONSHU:  TOKYO,34.998,140.172,30,,,,,7,1,,1,,,,2,,,,,7,1,,1,,,,2
5722,No,2003,9,21,18,16,13.4,10,6.6,6.6,6.9,6.1,,,,,MYANMAR (BURMA),,MYANMAR (BURMA):  TAUNGDWINGYI; THAILAND:  BANGKOK,19.917,95.672,60,,,,,,,,1,,,,2,,,,,,,,1,,,,2
5723,No,2003,9,22,4,45,36.2,10,6.4,6.4,6.6,6.2,,,,10,DOMINICAN REPUBLIC,,"DOMINICAN REPUBLIC:  PUERTO PLATA, SANTIAGO",19.777,-70.673,90,3,1,,,15,1,,3,,3,,,3,1,,,15,1,,3,,3,,
5724,Yes,2003,9,25,19,50,6.3,27,8.3,8.3,8.1,6.9,,,,,JAPAN,,JAPAN:  HOKKAIDO,41.815,143.91,30,,,,,849,3,90,4,,,,,2,1,,,849,3,90,4,,,,
5725,No,2003,9,27,11,33,25,16,7.3,7.3,7.5,6.5,,,,10,RUSSIA,,"RUSSIA:  KOSH-AGACH, UST'-ULAGAN, ONGUDAI, SHEBALINO",50.038,87.813,40,3,1,,,5,1,10.6,3,300,3,,,3,1,,,5,1,10.6,3,300,3,,
5726,No,2003,9,29,15,27,1,10,4.4,,4.4,5.1,,,,,RUSSIA,,RUSSIA:  KOSH-AGACH,50,87.89,40,,,,,,,,1,,,,,,,,,,,,1,,,,
5727,No,2003,9,29,18,22,32,32,4.8,,,4.8,4.9,,,,NEW ZEALAND,,NEW ZEALAND:  CHRISTCHURCH,-43.34,173.04,170,,,,,,,,1,,,,,,,,,,,,1,,,,
5728,No,2003,10,1,1,3,25.2,10,6.7,6.7,7.1,6.3,,,,,RUSSIA,,"RUSSIA:  KOSH-AGACH, BARNAUL, GORNO-ALTAYSK",50.211,87.721,40,,,,,,,,1,,,,1,,,,,,,,1,,,,1
5729,No,2003,10,15,7,30,35.9,78,5.2,5.2,,5,,,,,JAPAN,,JAPAN:  NEAR S COAST HONSHU:  ATSUGI,35.457,139.871,30,,,,,,,,1,,,,,,,,,,,,1,,,,
5730,No,2003,10,16,3,20,55.3,10,4.5,,4.5,4.8,,,,,DOMINICAN REPUBLIC,,"DOMINICAN REPUBLIC:   MOCA, SANTIAGO",19.761,-70.693,90,,,,,,,,1,,,,1,,,,,,,,1,,,,1
5731,No,2003,10,16,12,28,9,33,5.6,5.6,5.6,5.2,,,,,CHINA,,CHINA:  YUNNAN PROVINCE:  DAYAO,25.954,101.254,30,3,1,,,32,1,,3,12000,4,12000,4,3,1,,,32,1,,3,12000,4,,
5732,No,2003,10,25,12,41,35.2,10,5.8,5.8,5.7,5.8,,,,,CHINA,,"CHINA:  GANSU PROVINCE:  MINLE, SHANDAN",38.4,100.951,30,9,1,,,43,1,40,4,10000,4,,,9,1,,,43,1,40,4,10000,4,,
6610,Yes,2003,10,31,1,6,28.2,10,7,7,6.8,6.1,,,,,JAPAN,,JAPAN:  EAST COAST HONSHU,37.812,142.619,30,,,,,,,,,,,,,,,,,,,,,,,,
5733,No,2003,11,13,2,35,10.3,10,5.1,5.1,5.1,5.1,,,,,CHINA,,"CHINA:  GANSU PROVINCE:  JONE, LINTAN, MINXIAN",34.712,103.834,30,1,1,,,30,1,,1,10,1,,,1,1,,,30,1,,1,10,1,,
5734,No,2003,11,14,18,49,46.5,33,5.6,5.6,,5,,,,,CHINA,,"CHINA:  YUNNAN PROVINCE:  LUDIAN, ZHAOTONG",27.372,103.971,30,4,1,,,65,1,,2,600,3,600,3,4,1,,,65,1,,2,600,3,,
5735,Yes,2003,11,17,6,43,6.8,33,7.8,7.8,7.2,6.2,,,,,USA,AK,ALASKA:  ALEUTIAN ISLANDS:  RAT ISLANDS,51.146,178.65,150,,,,,,,,,,,,,,,,,,,,,,,,
5736,No,2003,11,18,17,14,22.6,35,6.5,6.5,6.5,6.1,,,,7,PHILIPPINES,,PHILIPPINES:  SAMAR:  CAN-AVID,12.025,125.416,170,1,1,,,21,1,,2,1,1,,3,1,1,,,21,1,,2,1,1,,3
5737,No,2003,11,26,13,38,57.8,33,4.7,,,4.7,,,,,CHINA,,CHINA:  YUNNAN PROVINCE:  LUDIAN,27.283,103.753,30,,,,,4,1,,4,2000,4,2000,4,,,,,4,1,,4,2000,4,,
5738,No,2003,12,1,1,38,31.9,10,6,6,5.9,6,,,,,CHINA,,CHINA:  XINJIANG:  ZHAOSU,42.905,80.515,40,11,1,,,47,1,,3,769,3,,,11,1,,,47,1,,3,769,3,,
5745,No,2003,12,5,23,41,27.4,33,4.9,,4.9,5.4,,,,,INDONESIA,,"INDONESIA:  FLORES, RUTENG",-8.137,120.524,60,,,,,,,,1,,,,1,,,,,,,,1,,,,1
5746,No,2003,12,10,4,38,11.5,10,6.8,6.8,6.7,6,,,,,TAIWAN,,"TAIWAN:  T'AI-TUNG, KAO-HSIUN",23.039,121.362,30,,,,,1,1,,1,,,,,,,,,1,1,,1,,,,
5747,No,2003,12,11,16,28,17.3,33,5,,,5,,,,,IRAN,,IRAN:  WESTERN:  MASJED-E- SOLEYMAN,31.953,49.209,140,,0,,,5,1,,1,2,1,2,1,,,,,5,1,,1,1,1,,
5748,No,2003,12,17,23,15,17.2,34,4.4,,,4.4,,,,,BULGARIA,,BULGARIA: POVADIYA,43.083,27.486,110,,,,,,,,2,10,1,10,1,,,,,,,,2,10,1,150,3
5749,No,2003,12,22,19,15,56,8,6.6,6.6,6.4,6.1,,,,8,USA,CA,"CALIFORNIA:  PASO ROBLES,TEMPLETON,ATASCADERO",35.706,-121.102,150,2,1,,,40,1,300,4,40,1,,,2,1,,,40,1,300,4,,,,
5750,No,2003,12,25,7,11,11.5,33,6.5,6.5,6.4,6,,,,,PANAMA,,PANAMA-COSTA RICA:  PUERTO ARMUELLES,8.416,-82.824,100,2,1,,,75,2,,2,,,,3,2,1,,,75,2,,2,,,,3
5751,No,2003,12,26,1,56,52.4,10,6.6,6.6,6.8,6,,,,9,IRAN,,"IRAN:  SOUTHEASTERN:  BAM, BARAVAT",28.995,58.311,140,31000,4,,,30000,4,32.7,4,,4,,4,31000,4,,,30000,4,32.7,4,,4,,
7404,Yes,2003,12,27,4,55,25.4,10,6.1,6.1,5.9,5.9,,,,,NEW CALEDONIA,,NEW CALEDONIA:  LOYALTY ISLANDS,-22.107,169.35,170,,,,,,,,,,,,,,,,,,,,,,,,
5752,No,2004,1,1,20,59,31.9,45,5.8,5.8,5.4,5.5,,,,6,INDONESIA,,"INDONESIA:  BALI, LOMBOK",-8.31,115.788,60,1,1,,,29,1,12,3,6000,4,,,1,1,,,29,1,12,3,6000,4,,
5753,No,2004,1,1,23,31,50,29,6.1,6.1,5.7,5.6,,,,,MEXICO,,"MEXICO:  GUERRERO, MEXICO CITY",17.488,-101.303,150,,,,,,,,1,,,,,,,,,,,,1,,,,
5754,No,2004,1,10,7,43,18,5,2.2,,,,2.2,,,,SLOVAKIA,,SLOVAKIA:  SLOVENSKO L'UPCA,48.758,19.217,110,,,,,,,,1,,,,,,,,,,,,1,,,,
5755,No,2004,1,10,18,38,14.8,10,4.4,,4.4,4.5,4.6,,,,ALGERIA,,"ALGERIA:  NORTHERN:  ALGIERS, BOUMERDES",36.852,3.418,15,,,,,300,3,,1,,,,,,,,,300,3,,1,,,,
5756,No,2004,1,14,16,58,48.1,12,5.2,5.2,,5.4,,,,,IRAN,,IRAN:  SOUTHERN:  FIRUZABAD,27.695,52.397,140,,,,,,,,1,,,,,,,,,,,,1,,,,
6611,Yes,2004,1,28,22,15,30.7,17,6.7,6.7,6.5,6,,,,,INDONESIA,,INDONESIA:  SERAM,-3.12,127.4,170,,,,,,,,,,,,,,,,,,,,,,,,
5757,No,2004,2,4,11,59,47.6,29,6.1,6.1,5.9,5.6,,,,,PANAMA,,PANAMA-COSTA RICA:  CHIRIQUI,8.358,-82.877,100,,,,,4,1,,1,,,,,,,,,4,1,,1,,,,
5758,No,2004,2,5,21,5,2.8,17,7,7,7.1,6.1,,,,,INDONESIA,,INDONESIA:  NABIRE,-3.615,135.538,170,37,1,,,682,3,1,2,2678,4,,,37,1,,,682,3,1,2,2678,4,,
5759,No,2004,2,7,2,42,35.2,10,7.3,7.3,7.5,6.2,,,,,INDONESIA,,INDONESIA:  NABIRE,-4.003,135.023,170,,,,,,,,1,,,,,,,,,,,,1,,,,
5760,Yes,2004,2,11,8,15,3.8,27,5.3,5.3,4.8,5.1,,,,,JORDAN,,"JORDAN:  MA'IN; ISRAEL:  JERUSALEM, PETAH-TIQWA",31.675,35.551,140,,,,,4,1,,2,,,,2,,,,,4,1,,2,,,,2
5761,No,2004,2,14,10,30,22.1,11,5.4,5.4,5.2,5.4,,,,,PAKISTAN,,"PAKISTAN:  BALAKOT, BATGRAM, MANSEHRA",34.774,73.216,60,24,1,,,40,1,,3,1420,4,1420,4,24,1,,,40,1,,3,1420,4,5379,4
5762,No,2004,2,16,14,44,39.9,56,5.1,5.1,4.5,5.2,,,,,INDONESIA,,INDONESIA:  SUMATRA:  PADANGPANJANG,-0.466,100.655,60,5,1,,,7,1,,1,,,,,5,1,,,7,1,,,,,100,2
5763,No,2004,2,22,6,46,27,42,6,6,5.7,6.3,,,,,INDONESIA,,INDONESIA:  SUMATRA:  PESISIR SELATAN,-1.559,100.488,60,,,,,1,1,,1,,,,,,,,,1,1,,1,,,,3
5764,No,2004,2,24,2,14,34,10,4.7,,,4.7,,,,,BURUNDI,,BURUNDI:  RUYAGA,-3.393,29.558,10,3,1,,,,,,1,24,1,,,3,1,,,,,,1,24,1,,
5765,No,2004,2,24,2,27,46.2,0,6.4,6.4,6.4,6.2,,,,9,MOROCCO,,"MOROCCO:  AL HOCEIMA, IMZOURENE, BENI ABDALLAH",35.142,-3.997,15,628,3,,,926,3,400,4,2539,4,,,628,3,,,926,3,400,4,2539,4,,
5766,No,2004,3,1,0,35,58,9,5.2,5.2,4.8,5.4,5.1,,,,GREECE,,GREECE:  SOUTHERN:  KALAMATA,37.136,22.116,130,,,,,,,,1,,,,1,,,,,,,,1,,,,1
5768,No,2004,3,24,1,53,49.4,19,5.4,5.4,5.2,5.6,,,,,CHINA,,"CHINA:  NEI MONGOL:  BAYAN UL HOT, ULIASTAI",45.382,118.256,30,,,,,100,2,74,4,38000,4,,,,,,,100,2,74,4,38000,4,,
5767,No,2004,3,25,19,30,49,,5.6,5.6,5.4,5,,,,,TURKEY,,TURKEY:  ERZURUM,39.93,40.812,140,10,1,,,46,1,,1,45,1,45,1,10,1,,,46,1,,1,45,1,,
5769,No,2004,3,28,3,51,10,5,5.6,5.6,5.3,5.3,5.3,,,,TURKEY,,TURKEY:  ASKALE,39.847,40.874,140,,,,,12,1,,1,50,1,50,1,,,,,12,1,,1,50,1,,
5771,No,2004,4,5,21,24,4,187,6.5,6.5,,6.4,,,,,AFGHANISTAN,,"AFGHANISTAN:  HINDU KUSH:  KABUL, SAMANGAN; PAKISTAN",36.512,71.029,40,3,1,,,5,1,,,,,,,3,1,,,5,1,,,,,,
5772,No,2004,4,9,1,55,50.7,66,5.4,5.4,,5.5,,,,,INDONESIA,,INDONESIA:  SUMATRA:  PADANG,-1.549,100.54,60,,,,,,,,1,,,,,,,,,,,,1,,,,1
5774,No,2004,4,16,18,32,24,96,5.5,5.5,,5.5,,,,,INDONESIA,,INDONESIA:  BALI,-8.669,114.65,60,,,,,,,,1,,,,1,,,,,,,,1,,,,1
5775,No,2004,4,23,1,50,30.2,66,6.7,6.7,,6.5,,,,,INDONESIA,,INDONESIA:  TIMOR: KUPANG,-9.362,122.839,60,,,,,,,,1,,,,,,,,,,,,1,,,,
5776,No,2004,5,1,7,56,13.6,45,5.2,5.2,5.1,5.2,,,,,TAIWAN,,TAIWAN:  HUALIEN: TAROKO GORGE NATIONAL PARK,24.081,121.611,30,2,1,,,1,1,,1,,,,,2,1,,,1,1,,1,,,,
5777,No,2004,5,3,4,36,50,21,6.6,6.6,6.5,5.9,6.4,,,6,CHILE,,CHILE: CANETE,-37.695,-73.406,160,,,,,,,,1,,,,,,,,,,,,1,,,,
5778,No,2004,5,4,5,4,58.3,14,5.4,5.4,5.2,5.4,,,,,CHINA,,CHINA:  QINGHAI PROVINCE:  DELINGHA,37.506,96.758,30,,,,,,,,3,,,,,,,,,,,,3,,,3100,4
5779,No,2004,5,8,4,39,25,67,5,,,5,,,,,IRAN,,IRAN:  KAZERUN,29.881,51.474,140,,,,,,,,1,4,1,4,1,,,,,,,,1,4,1,6,1
5780,No,2004,5,8,20,11,44.2,10,4.5,,,4.5,,,,,PAKISTAN,,PAKISTAN:  QUETTA,30.126,67.121,60,1,1,,,30,1,,1,,,,,1,1,,,30,1,,1,,,,1
5782,No,2004,5,19,21,28,10.6,35,4.1,,4.1,4.8,,,,6,PHILIPPINES,,PHILIPPINES:  BOHOL ISLAND:  TUBIGON,9.926,124.038,170,,,,,,,,1,,,,,,,,,,,,1,,,,
5783,No,2004,5,28,12,38,44.4,17,6.3,6.3,6.3,6.2,,,,,IRAN,,"IRAN:  MAZANDARAN, QAZVIN, TEHRAN",36.29,51.61,140,35,1,,,400,3,165,4,,,,,35,1,,,400,3,165,4,,,,3
5784,No,2004,5,30,2,52,12.2,14,4.9,4.9,,4.9,,,,,RUSSIA,,"RUSSIA:  SAKHALIN, YUZHNO, SAKHALINSK",47.311,142.12,50,,,,,,,,1,,,46,1,,,,,,,,1,,,46,1
5785,No,2004,6,9,11,41,16.5,10,4.6,,,,4.6,,,,SAUDI ARABIA,,SAUDI ARABIA: WESTERN,27.836,36.905,140,,,,,,,,1,,,,,,,,,,,,1,,,,
5786,No,2004,6,15,11,16,31.5,38,5.9,5.9,5.4,5.7,,,,6,CHILE,,"CHILE: CARAHUE, IMPERIAL, TEMUCO",-38.854,-73.155,160,,,,,,,,1,,,,,,,,,,,,1,,,,
5787,No,2004,7,1,22,30,9.3,5,5.1,5.1,4.8,5.4,,,,,TURKEY,,TURKEY:  DOGUBEYAZIT,39.766,43.979,140,18,1,,,21,1,,,,,,,18,1,,,21,1,,,,,,
5789,No,2004,7,12,13,4,7.1,8,5.2,5.2,4.9,5,5.7,,,,SLOVENIA,,"SLOVENIA: BOVEC, KOBARID",46.296,13.641,130,1,1,,,5,1,,1,,1,,1,1,1,,,5,1,,1,,1,,1
5790,No,2004,7,14,14,36,2.5,,4.6,,,4.6,,,,,AFGHANISTAN,,AFGHANISTAN: HERAT,34.89,61.852,40,,,,,,,,2,,,,,,,,,,,,2,,,150,3
5791,No,2004,7,18,4,22,22.6,5,5.4,5.4,5.1,5.1,,,,,NEW ZEALAND,,"NEW ZEALAND:  NORTH ISLAND:  ROTORUA, TAURANGA",-38,176.51,170,1,1,,,2,1,,2,,,5,1,1,1,,,2,1,,2,,,5,1
5792,No,2004,7,18,8,31,45.8,10,5.2,5.2,4.8,5.1,,,,,AFGHANISTAN,,AFGHANISTAN: PAKTIA PROVINCE,33.426,69.524,40,2,1,,,40,1,,3,,3,,3,2,1,,,40,1,,3,,3,,
5793,No,2004,7,30,7,14,7.8,5,4,,4,4.8,,,,,TURKEY,,TURKEY:  DOGUBEYAZIT,39.634,43.966,140,1,1,,,5,1,,1,,,,,1,1,,,5,1,,1,,,,2
5795,No,2004,8,4,3,1,7.5,10,5.6,5.6,5.2,5.1,,,,,TURKEY,,TURKEY:  BODRUM,36.833,27.815,140,,,,,15,1,,,,,,,,,,,15,1,,,,,,
5796,No,2004,8,10,10,26,14.7,6,5.4,5.4,5.1,5.1,,,,,CHINA,,CHINA:  YUNNAN PROVINCE:  LUDIAN,27.266,103.873,30,4,1,,,600,3,50,4,18556,4,65601,4,4,1,,,600,3,50,4,18556,,65601,4
5797,No,2004,8,11,15,48,26.8,7,5.7,5.7,5.5,5.3,,,,,TURKEY,,"TURKEY:  ELAZIG, SIVRICE",38.377,39.261,140,1,1,,,11,1,,1,,,,,1,1,,,11,1,,1,,,,
5798,Yes,2004,9,5,10,7,7.8,14,7.2,7.2,7,6.7,,,,,JAPAN,,JAPAN:  HONSHU:  W COAST: KYOTO,33.07,136.618,30,,,,,4,1,,1,,,,,,,,,4,1,,1,,,,
5799,Yes,2004,9,5,14,57,18.6,10,7.4,7.4,7.1,6.2,,,,,JAPAN,,"JAPAN:  HONSHU:  W COAST: KYOTO, WAKAYAMA, SAKAI",33.184,137.071,30,,,,,40,1,,1,,,,,,,,,40,1,,1,,,,
5800,No,2004,9,7,11,53,6.1,22,6.1,6.1,6.1,6.1,,,,,ARGENTINA,,ARGENTINA: CATAMARCA,-28.573,-65.84,160,1,1,,,,2,,1,,2,,2,1,1,,,,2,,1,,2,,
5801,No,2004,9,7,12,15,49.7,10,5.2,,,5.2,,,,,CHINA,,CHINA:  GANSU PROVINCE,34.682,103.781,30,,,,,19,1,,3,600,3,,,,,,,19,1,,3,600,3,,
5802,No,2004,9,21,13,32,30.8,10,4.8,4.8,,4.9,4.8,,,6,POLAND,,"POLAND: SUWALKI; RUSSIA: KALININGRAD, SVETLOGORSK",54.841,19.912,120,,,,,3,1,,1,,,,,,,,,3,1,,1,,,,
5803,No,2004,9,28,17,15,24.2,9,6,6,5.8,5.4,,,,6,USA,CA,"CALIFORNIA:  CENTRAL: PARKFIELD, SAN MIGUEL",35.819,-120.364,150,,,,,,,,1,,,,,,,,,,,,1,,,,
5825,No,2004,10,1,8,1,1.3,87,5.6,5.6,,5.1,,,,,NICARAGUA,,"NICARAGUA:  CHINANDEGA, LEON",11.989,-86.52,100,,,,,,,,1,,,,,,,,,,,,1,,,,
5804,No,2004,10,7,21,46,20.3,35,5.6,5.6,5.4,5.6,,,,,IRAN,,IRAN:  GOLESTAN,37.125,54.477,140,,,,,60,2,,,,,,,,,,,60,2,,,,,,
5805,No,2004,10,15,4,8,50.2,94,6.6,6.6,,6.4,,,,,TAIWAN,,TAIWAN:  T'AO-YUAN,24.53,122.694,30,,,,,,2,,1,,,,,,,,,,2,,1,,,,
5806,No,2004,10,18,22,11,44.9,30,4.4,,4.4,4.8,,,,,CHINA,,CHINA:  YUNNAN PROVINCE:  BAOSHAN,25.073,99.169,30,,,,,12,1,,3,20000,4,20000,4,,,,,12,1,,3,20000,4,,
5807,No,2004,10,23,8,56,0.8,16,6.6,6.6,6.3,6.4,,,,,JAPAN,,JAPAN:  HONSHU:  NIIGATA PREFECTURE,37.226,138.779,30,40,1,,,3183,4,28000,4,6000,4,,,40,1,,,3183,4,28000,4,6000,4,,
5808,No,2004,10,27,1,40,50.2,14,5.9,5.9,5.4,5.7,,,,,JAPAN,,JAPAN:  HONSHU:  NIIGATA PREFECTURE,37.284,138.885,30,,,,,5,1,,1,1,1,,,,,,,5,1,,1,1,1,,
5826,No,2004,10,27,20,34,36.8,96,5.8,5.8,,5.8,,,,,ROMANIA,,"ROMANIA:  BUCHAREST, BRAILA; BULGARIA:  NORTHERN",45.787,26.622,110,,,,,,,,1,,,,,,,,,,,,1,,,,
7403,Yes,2004,11,2,10,2,12.8,10,6.6,6.6,6.4,5.8,,,,,CANADA,BC,CANADA:  VANCOUVER ISLAND,49.277,-128.772,150,,,,,,,,,,,,,,,,,,,,,,,,
5827,No,2004,11,4,6,22,39.4,74,5.2,5.2,,5.4,,,,,GREECE,,GREECE:  CRETE:  ANTIKYTHIRA,35.945,23.115,130,,,,,,,,1,,,,,,,,,,,,1,,,,
5809,No,2004,11,8,2,15,58.8,10,5.5,5.5,5,5.6,,,,,JAPAN,,JAPAN:  HONSHU:  NIIGATA PREFECTURE,37.396,138.862,30,,,,,8,1,,1,,,,,,,,,8,1,,1,,,,
5810,Yes,2004,11,11,21,26,41.1,10,7.5,7.5,7.3,6.5,,,,,INDONESIA,,INDONESIA:  KEPULAUAN ALOR,-8.152,124.868,60,34,1,,,400,3,,3,781,3,16712,4,34,1,,,400,3,,3,781,3,16712,4
5811,No,2004,11,15,9,6,56.5,15,7.2,7.2,7.1,6.6,,,,,COLOMBIA,,"COLOMBIA:  BAJO BAUDO, BUENAVENTURA, CERRITO",4.695,-77.508,160,,,,,10,1,,3,154,3,,,,,,,10,1,,3,154,3,,
5830,No,2004,11,19,23,49,37.1,37,4.8,,,4.8,,,,,IRAN,,IRAN:  W,32.023,48.836,140,,,,,,,,1,,,,,,,,,,,,1,,,,
5812,No,2004,11,20,8,7,22,16,6.4,6.4,6.3,6.2,,,,,COSTA RICA,,"COSTA RICA:  SAN JOSE, PARRITA, QUEPOS",9.602,-84.172,100,8,1,,,,2,,3,526,3,,,8,1,,,,2,,3,526,3,,
5813,Yes,2004,11,21,11,41,7.7,14,6.3,6.3,6.1,6.3,,,,,GUADELOUPE,,"GUADELOUPE:  BASSE-TERRE, LES SAINTES",15.679,-61.706,90,1,1,,,12,1,,2,,3,,,1,1,,,12,1,,2,,3,,
5814,No,2004,11,22,4,1,30.4,36,5,5,4,5,,,,,IRAN,,"IRAN:  KHORRAMABAD, POL-E DOKHTAR",33.297,47.977,140,,,,,,2,,1,,1,,1,,,,,,2,,1,,1,,
5815,Yes,2004,11,22,20,26,23.9,10,7.1,7.1,7.1,6.4,,,,,NEW ZEALAND,,"NEW ZEALAND:  INVERCARGILL, SOUTHLAND, OTAGO",-46.676,164.721,170,,,,,,,,1,,,,,,,,,,,,1,,,,
5816,No,2004,11,24,22,59,40,17,5.1,5.1,4.6,5.3,5.5,,,,ITALY,,ITALY:  NORTHERN:  BRESCIA,45.626,10.559,130,,,,,9,1,,2,,3,,,,,,,9,1,,2,,3,,
5817,No,2004,11,26,2,25,3.3,10,7.1,7.1,7.2,6.2,,,,8,INDONESIA,,INDONESIA:  NABIRE,-3.609,135.404,170,32,1,,,130,3,55,4,328,3,,,32,1,,,130,3,55,4,328,3,,
5818,Yes,2004,11,28,18,32,14.1,39,7,7,6.7,6.4,,,,,JAPAN,,"JAPAN:  HOKKAIDO:  BEKKAI, KUSHIRO, NEMOURO",43.006,145.119,30,,,,,24,1,,1,,,,1,,,,,24,1,,1,,,,1
5819,No,2004,12,1,17,42,24.7,10,4.5,,,4.5,,,,,ALGERIA,,ALGERIA:  BOUMERDAS,36.848,3.448,15,,,,,15,1,,1,,,,,,,,,15,1,,1,,,,
5831,No,2004,12,2,19,16,34.6,49,5.8,5.8,5.3,5.4,,,,,TRINIDAD AND TOBAGO,,TRINIDAD:  MAYARO,10.49,-61.48,90,,,,,,,,1,,,,,,,,,,,,1,,,,
5832,No,2004,12,5,1,52,37.2,10,4.8,4.8,,4.2,5.5,,,5,GERMANY,,"GERMANY:  EMMENDINGEN, FREIBURG IM BREISGAU",48.115,8.077,120,,,,,,,,1,,,,,,,,,,,,1,,,,
5820,No,2004,12,5,8,30,59.5,10,4.5,,,4.5,4.7,,,,ALGERIA,,ALGERIA:  ZEMMOURI,36.865,3.421,15,,,,,46,1,,,,,,,,,,,46,1,,,,,,
5833,No,2004,12,6,14,15,11.8,35,6.8,6.8,6.5,6.5,,,,,JAPAN,,JAPAN:  HOKKAIDO:  KUSHIRO,42.9,145.228,30,,,,,4,1,,,,,,,,,,,4,1,,,,,,
5821,No,2004,12,9,8,49,0.2,35,5.4,5.4,4.7,5.5,,,,,INDIA,,"INDIA:  HAILAKANDI, CACHAR",24.757,92.539,60,,,,,,2,,1,,,,,,,,,,2,,1,,,,
5822,No,2004,12,14,5,56,10,10,5.8,5.8,5.3,5.8,,,,,JAPAN,,"JAPAN:  HOKKAIDO:  OBIRO, HABORO, TOMAMAE",44.119,141.793,30,,,,,3,1,,1,,,,,,,,,3,1,,1,,,,
5834,No,2004,12,20,23,2,12.4,5,5.4,5.4,4.7,5.2,5.1,,,,TURKEY,,TURKEY:  MARMARIS,37.042,28.206,140,,,,,3,1,,1,,,,,,,,,3,1,,1,,,,
5835,Yes,2004,12,23,14,59,4.4,10,8.1,8.1,7.7,6.5,,,,,AUSTRALIA,TAS,AUSTRALIA:  MACQUARIE ISLAND,-49.312,161.345,170,,,,,,,,,,,,,,,,,,,,,,,,
5823,Yes,2004,12,26,0,58,53.4,30,9.1,9.1,8.8,7,,,,,INDONESIA,,INDONESIA:  SUMATRA:  ACEH:  OFF WEST COAST,3.316,95.854,60,1001,4,,,,3,10000,4,,3,,3,227899,4,,,,3,10000,4,,4,,4
5836,No,2005,1,10,18,47,30.1,32,5.4,5.4,5.1,5.3,,,,,IRAN,,IRAN:  GORGAN,37.103,54.574,140,,,,,110,3,,,,,,,,,,,110,3,,,,,,
6640,Yes,2005,1,19,6,11,36.4,28,6.6,6.6,6.4,5.8,,,,,JAPAN,,JAPAN:  EAST COAST HONSHU,34.064,141.491,30,,,,,,,,,,,,,,,,,,,,,,,,
5838,No,2005,1,20,18,56,30.7,39,5.3,5.3,,5.2,5.5,,,,NEW ZEALAND,,NEW ZEALAND:  NORTH ISLAND,-41.223,175.21,170,,,,,,,,1,,,,,,,,,,,,1,,,,
5839,No,2005,1,23,20,10,12.1,11,6.3,6.3,5.9,5.8,,,,,INDONESIA,,INDONESIA:  SULAWESI:  PALU,-1.198,119.933,170,1,1,,,4,1,,2,,,,,1,1,,,4,1,,2,,,,
5840,No,2005,1,24,23,23,26.1,17,6.1,6.1,5.7,5.5,,,,,ECUADOR,,"ECUADOR:  NEAR WEST COAST:  PUERTO LOPEZ, SALANGO",-1.364,-80.785,160,,,,,,,,2,,2,,,,,,,,,,2,,2,,
5842,No,2005,1,25,16,30,38.9,12,4.8,,,4.8,,,,,CHINA,,CHINA:  YUNNAN PROVINCE:  SIMAO,22.526,100.709,30,,,,,3,1,,1,,,,,,,,,3,1,,1,,,,
5841,No,2005,1,25,16,44,16.1,41,5.9,5.9,5.6,5.3,,,,,TURKEY,,TURKEY:  HAKKARI,37.622,43.703,140,2,1,,,22,1,,1,,,,,2,1,,,22,1,,1,,,,
5843,No,2005,1,29,7,41,31,5,4.4,,,4.4,4.8,,,,SPAIN,,"SPAIN:  LA PACA, ZARCILLA DE RAMOS",37.91,-1.82,130,,,,,,,,2,,,,,,,,,,,,2,,,,
5844,No,2005,2,2,5,55,18.2,15,4.8,,,4.8,,,,,INDONESIA,,INDONESIA:  JAVA:  GARUT,-7.037,107.819,60,1,1,,,,2,,2,,2,,2,1,1,,,,2,,2,,2,,
9112,Yes,2005,2,14,18,5,59.3,12,5.8,5.8,5.5,5.6,,,,,GUADELOUPE,,GUADELOUPE,15.775,-61.744,90,,,,,,,,,,,,,,,,,,,,,,,,
5846,No,2005,2,14,23,38,8.6,22,6.1,6.1,6.2,6.1,,,,,CHINA,,CHINA:  XINJIANG PROVINCE:  WUSHI,41.728,79.44,40,,,,,,,,3,6000,4,,,,,,,,,,3,6000,4,,
5847,No,2005,2,15,11,15,11.7,35,5.1,,,5.1,,,,,INDIA,,INDIA:  KHASPUR,24.55,92.524,60,,,,,,,,1,,,,,,,,,,,,1,,,,
5848,No,2005,2,22,2,25,22.9,14,6.4,6.4,6.5,6,,,,,IRAN,,IRAN:  KERMAN PROVINCE:  ZARAND,30.754,56.816,140,612,3,,,1411,4,,4,8000,4,8000,4,612,3,,,1411,4,,4,8000,4,,
5849,No,2005,3,2,11,12,14.9,52,4.9,,,4.9,,,,,PAKISTAN,,PAKISTAN:  QUETTA,30.378,68.038,60,,,,,1,1,,1,,,,,,,,,1,1,,1,,,,
5850,No,2005,3,9,10,15,31.8,5,4.3,,4.3,5,,,,,SOUTH AFRICA,,"SOUTH AFRICA:  KLERKSDORP, STILFONTEIN",-26.913,26.789,10,2,1,,,58,2,,2,,,,,2,1,,,58,2,,2,,,,
5851,No,2005,3,12,7,36,12.1,11,5.6,5.6,5,5.4,5.7,,,,TURKEY,,"TURKEY:  CAT, KARLIOVA",39.44,40.978,140,,,,,16,1,,2,,,,,,,,,16,1,,2,,,,
5852,No,2005,3,13,3,31,23,54,6,6,5.4,5.9,,,,,IRAN,,IRAN:  SARAVAN,27.095,61.887,140,,,,,,,,1,,,,,,,,,,,,1,,,,
5853,No,2005,3,14,1,55,55.6,5,5.8,5.8,5.7,5.5,5.9,,,,TURKEY,,TURKEY:  EASTERN:  BINGOL PROVINCE,39.354,40.89,140,,,,,18,1,,3,,2,,2,,,,,18,1,,3,,2,,
5854,No,2005,3,14,9,43,49.1,10,4.9,4.9,4.1,4.9,5.1,,,,INDIA,,"INDIA:  MAHARASHTRA:  KOLHAPUR, RATNAGIRI, SATARA",17.145,73.73,60,,,,,45,1,,2,,,,,,,,,45,1,,2,,,,
5855,No,2005,3,15,2,7,6.8,10,4.3,,,4.3,4.3,,,,INDIA,,INDIA:  MAHARASHTRA:  DHEBEWADI,17.072,73.668,60,,,,,,,,1,,,,,,,,,,,,1,,,,
5856,No,2005,3,20,1,53,41.8,10,6.6,6.6,6.7,5.9,,,,,JAPAN,,"JAPAN:  KYUSHU:  FUKUOKA, GENKAI",33.807,130.131,30,1,1,,,500,3,,2,65,2,,,1,1,,,500,3,,2,65,2,,
6657,Yes,2005,3,28,16,9,36.5,30,8.6,8.6,8.4,7.2,,,,,INDONESIA,,INDONESIA:  SUMATERA:  SW,2.085,97.108,60,1303,4,,,340,3,,4,300,3,300,3,1313,4,,,340,3,,4,300,3,,
6659,Yes,2005,4,10,10,29,11.2,19,6.7,6.7,6.7,6.4,,,,5,INDONESIA,,INDONESIA:  PADANG,-1.644,99.607,60,,,,,,,,,,,,,,,,,,,,,,,,
8135,No,2005,6,13,22,44,33.9,116,7.7,7.7,,6.8,,,,,CHILE,,CHILE:  TARAPACA,-19.987,-69.197,160,11,1,,,200,3,,,544,3,,,11,1,,,200,3,,,544,3,,
6738,Yes,2005,6,15,2,50,53.1,10,7.2,7.2,7.1,6.2,,,,4,USA,CA,CALIFORNIA:  OFF COAST NORTHERN,41.301,-125.97,150,,,,,,,,,,,,,,,,,,,,,,,,
6757,No,2005,7,5,1,52,2.9,21,6.7,6.7,6.8,6.2,,,,,INDONESIA,,INDONESIA:  SUMATRA:  NIAS ISLAND:  GUNUNGSITOLI,1.819,97.082,60,,,,,,,,1,,,,,,,,,,,,1,,,,
6758,No,2005,7,9,23,59,17,32,5.9,5.9,5.5,5.6,,,,,INDONESIA,,INDONESIA:  SULAWESI:  DONGGALA,-1.174,119.963,170,,,,,,,,1,6,1,6,1,,,,,,,,1,6,1,,
6759,No,2005,7,10,13,10,12.1,4,5.2,5.2,4.9,5.4,5.5,,,,ALBANIA,,ALBANIA:  TROPOJE,42.389,19.812,130,,,,,,,,1,,1,,,,,,,,,,1,,1,,
6760,No,2005,7,18,2,4,59.8,10,5.3,5.3,5.2,5.7,,,,,INDONESIA,,INDONESIA:  TIMOR:  TIMOR TENGAH UTARA,-9.948,124.48,60,,,,,,,,1,,1,,1,,,,,,,,1,,1,,
6761,No,2005,7,23,7,34,56.7,61,5.9,5.9,,6.1,,,,,JAPAN,,JAPAN:  HONSHU:  TOKYO,35.498,139.982,30,,,,,27,1,,1,1,1,,,,,,,27,1,,1,1,1,,
6762,No,2005,7,24,15,42,6.2,16,7.2,7.2,7.5,6.6,,,,,INDIA,,"INDIA:  ANDAMAN ISLANDS,  NICOBAR ISLANDS",7.92,92.19,60,,,,,,,,1,,1,,1,,,,,,,,1,,1,,
6763,No,2005,7,25,15,43,41.1,48,4.7,,4.7,5,,,,,CHINA,,CHINA:  DAQING,46.827,125.058,30,1,1,,,12,1,,,,,,,1,1,,,12,1,,,,,,
6764,No,2005,7,26,4,8,37.1,13,5.6,5.6,5.2,5.7,,,,6,USA,MT,"MONTANA:  DILLON, SILVER STAR, TWIN BRIDGES",45.365,-112.615,150,,,,,,,,1,,,,,,,,,,,,1,,,,
6765,No,2005,7,30,21,45,    ,5,5.3,5.3,4.8,4.8,,,,,TURKEY,,"TURKEY:  BAHCEKARADALAK, SIRAPINAR, YENIYAPANSEYHLI",39.437,33.089,140,,,,,,,,1,,,,,,,,,,,,1,,,,
6766,No,2005,8,5,14,14,48,42,4.8,,4.8,5.2,,,,,CHINA,,CHINA:  YUNNAN PROVINCE:  HUIZE,26.569,103.036,30,,,,,9,1,,2,3700,4,3700,4,,,,,9,1,,2,3700,4,,
6767,No,2005,8,5,18,7,13.8,10,4.5,,,4.5,,,,,VIETNAM,,VIETNAM:  HO CHI MINH CITY,9.985,108.383,30,,,,,,,,1,,,,,,,,,,,,1,,,,
6768,No,2005,8,9,5,9,20.8,10,5.1,,,5.1,5,,,,IRAN,,IRAN:  FIRUZABAD,28.85,52.56,140,,,,,,,,1,,,,,,,,,,,,1,,,,
6769,No,2005,8,13,4,58,44.8,10,4.5,,4.5,4.8,,,,,CHINA,,CHINA:  YUNNAN PROVINCE:  WENSHAN,23.627,104.103,30,,,,,26,1,,1,,2,,2,,,,,26,1,,1,,2,,
6770,No,2005,8,14,2,39,40.3,11,5.8,5.8,,5.7,,,,,CHILE,,CHILE:  TARAPACA,-19.78,-68.98,160,,,,,,,,1,,,,,,,,,,,,1,,,,
6771,No,2005,8,14,6,33,32.5,35,4.4,,,4.4,,,,7,INDIA,,INDIA:  MAHARASHTRA,17.398,74.118,60,,,,,,,,2,,,,,,,,,,,,2,,,,
6739,Yes,2005,8,16,2,46,28.4,36,7.2,7.2,6.8,6.5,,,,,JAPAN,,JAPAN:  EAST COAST HONSHU,38.276,142.039,30,,,,,56,2,,1,1,1,,,,,,,56,2,,1,1,1,,
6773,No,2005,8,16,3,45,54.1,43,4.4,,,4.4,,,,6,INDIA,,INDIA:  UTTARANCHAL:  UTTARKAHI,30.924,78.56,60,,,,,,,,1,,1,,1,,,,,,,,1,,1,,
6774,No,2005,8,30,8,53,17.4,10,4.7,,,4.7,,,,6,INDIA,,"INDIA: MAHARASHTRA: AMBEGHAR, DICHOLI, KISRULE",17.067,73.773,60,,,,,,,,1,,,,,,,,,,,,1,,,,
6775,No,2005,9,9,7,26,43.7,90,7.7,7.7,,6.3,,,,,PAPUA NEW GUINEA,,PAPUA NEW GUINEA:  NEW IRELAND,-4.539,153.474,170,,,,,,,,,,,,,,,,,,,,,,,,
6822,No,2005,9,24,19,24,2.6,12,5.6,5.6,5,5.1,,,,,ETHIOPIA,,ETHIOPIA:  DABBAHU,12.471,40.634,10,,,,,,,,,,,,,,,,,,,,2,,,,
6776,No,2005,9,26,1,55,37.6,115,7.5,7.5,,6.7,,,,,PERU,,"PERU:  LAMAS, CHACHAPOYAS, MOYOBAMBA, TARAPOTA",-5.678,-76.398,160,5,1,,,60,2,,2,,3,,,5,1,,,60,2,,2,,3,,
6777,No,2005,10,1,22,19,51.3,20,5.3,,,5.3,5.4,,,,PERU,,PERU:  MOQUEGUA,-16.635,-70.794,160,,,,,10,1,,1,300,3,,,,,,,10,1,,1,300,3,,
6778,No,2005,10,8,3,50,40.8,26,7.6,7.6,7.7,6.9,,,,8,PAKISTAN,,"PAKISTAN:  MUZAFFARABAD, URI, ANANTNAG, BARAMULA",34.539,73.588,60,76213,4,,,146599,4,6680,4,,3,,3,76213,4,,,146599,4,6680,4,,3,,
6779,No,2005,10,20,21,40,4,10,5.9,5.9,5.7,5.5,,,,,TURKEY,,TURKEY:  IZMIR,38.152,26.751,140,1,1,,,15,1,,1,,2,,2,1,1,,,15,1,,1,,2,,
6824,No,2005,10,24,17,35,33.8,35,4.8,,,4.8,,,,6,ECUADOR,,ECUADOR:  BAEZA,-0.507,-77.745,160,,,,,,,,1,,,,,,,,,,,,1,,,,
6825,No,2005,10,27,11,18,57.3,10,4.2,,,4.2,,,,,CHINA,,CHINA:  GUANGXI PROVINCE,23.604,107.798,30,1,1,,,1,1,,1,,1,,,1,1,,,1,1,,1,,1,,
6826,No,2005,10,31,2,10,28.7,40,5.4,5.4,,5.4,,,,,PERU,,PERU:  N,-5.852,-78.704,160,,,,,,,,,20,1,,,,,,,,,,,20,1,,
6827,Yes,2005,11,14,21,38,51.4,11,7,7,6.8,6.7,,,,,JAPAN,,JAPAN:  EAST COAST HONSHU,38.107,144.896,30,,,,,,,,,,,,,,,,,,,,,,,,
6828,No,2005,11,26,0,49,37.6,10,5.2,5.2,4.9,5.4,,,,,CHINA,,"CHINA:  JIANGXI:  JIUJIANG, RUICHANG",29.695,115.689,30,16,1,,,8000,4,,3,150000,4,,,16,1,,,8000,4,,3,150000,4,,
7251,No,2005,11,26,15,56,55,9,4.4,,4.4,5.3,5.3,,,,TURKEY,,TURKEY:  DOGANYOL,38.26,38.814,140,,,,,,,,1,,,,,,,,,,,,1,,,,
6829,No,2005,11,27,10,22,19.1,10,6,6,5.8,6.1,,,,,IRAN,,"IRAN:  QESHM, ZIRANG",26.774,55.858,140,13,1,,,100,2,,2,,,,,13,1,,,100,2,,2,,,,
6830,No,2005,12,5,12,19,56.6,22,6.8,6.8,7.2,6.4,,,,,CONGO,,CONGO:  KALEMIE,-6.224,29.83,10,6,1,,,,,,1,300,3,,,6,1,,,,,,1,300,3,,
6831,No,2005,12,12,21,47,46,225,6.5,6.5,,6,,,,,AFGHANISTAN,,"AFGHANISTAN:  TILI, JALALABAD, BADAKHSHAN",36.357,71.093,40,5,1,,,1,1,,1,100,2,100,2,5,1,,,1,1,,1,100,2,,
7252,No,2005,12,14,7,9,54.1,44,5.3,,,5.3,,,,,INDIA,,"INDIA:  JAUSARI, CHAMOLI, NANDPRAYAG",30.476,79.255,60,1,1,,,4,1,,2,1,1,1,1,1,1,,,4,1,,2,1,1,,
7253,No,2005,12,24,3,56,7.3,14,4.3,,,4.3,4.6,,,,TURKEY,,TURKEY:  AKHISAR,38.804,26.783,140,,,,,,,,1,,,,,,,,,,,,1,,,,
7222,No,2006,1,8,11,34,55.6,66,6.7,6.7,,6.5,,,,,GREECE,,GREECE:  SOUTHERN,36.311,23.212,130,,,,,3,1,,1,,1,,,,,,,3,1,,1,,1,,
8956,No,2006,1,27,16,58,53.6,397,7.6,7.6,,7,,,,,INDONESIA,,INDONESIA:  BANDA SEA,-5.473,128.131,170,,,,,,,,,,,,,,,,,,,,,,,,
7223,No,2006,2,14,0,55,25,30,5.3,5.3,4.8,5.4,,,,,INDIA,,INDIA:  SIKKIM,27.382,88.388,60,2,1,,,2,1,,1,,,,,2,1,,,2,1,,1,,,,
7224,No,2006,2,20,17,20,9,10,4.6,,,4.6,4.6,,,,BULGARIA,,GREECE-BULGARIA BORDER REGION,41.708,25.544,110,,,,,2,1,,,,1,,1,,,,,2,1,,,,1,,
7225,No,2006,2,22,22,19,7.8,11,7,7,7.5,6.5,,,,,MOZAMBIQUE,,MOZAMBIQUE,-21.324,33.583,10,4,1,,,36,1,,2,294,3,,,4,1,,,36,1,,2,294,3,,
7226,No,2006,2,23,20,4,53.5,10,5.8,5.8,5.3,5.5,,,,,BHUTAN,,BHUTAN:  TASHIGANG,26.912,91.705,60,,,,,,,,1,126,3,126,3,,,,,,,,1,126,3,,
7227,No,2006,2,28,7,31,2.6,18,6,6,6.2,5.8,,,,,IRAN,,IRAN:  SOUTHERN,28.12,56.865,140,,,,,6,1,,2,,3,,3,,,,,6,1,,2,,3,,
7228,No,2006,3,7,18,20,46.1,10,5.5,5.5,5.1,5.2,,,,,INDIA,,INDIA:  GUJARAT,23.777,70.899,60,,,,,7,1,,1,,1,,1,,,,,7,1,,1,,1,,
7229,No,2006,3,10,7,50,14.3,10,4.9,,,4.9,,,,,PAKISTAN,,PAKISTAN:  MIRPUR DISTRICT,33.129,73.887,60,1,1,,,22,1,,,,,,,1,1,,,22,1,,,,,,
7230,Yes,2006,3,14,6,57,33.8,30,6.7,6.7,6.7,6.4,,,,,INDONESIA,,INDONESIA:  SERAM,-3.595,127.214,170,,,,,,,,2,241,3,,,4,1,,,,,,2,241,3,,
7231,No,2006,3,20,19,44,25.1,10,4.9,,4.9,5,,,,,ALGERIA,,ALGERIA:  NORTHERN,36.623,5.328,15,4,1,,,9,1,,,62,2,62,2,4,1,,,9,1,,,62,2,,
7232,No,2006,3,25,7,28,57.6,18,5.9,5.9,5.5,5.7,,,,,IRAN,,IRAN:  SOUTHERN,27.574,55.685,140,1,1,,,1,1,,1,,,,,1,1,,,1,1,,1,,,,
7233,No,2006,3,28,8,35,43.3,30,5,,,5,,,,,INDONESIA,,INDONESIA:  N. SUMATRA: TAPAKTUAN,3.462,97.224,60,,,,,,,,1,,,,,,,,,,,,1,,,,
